{
"type": "FeatureCollection",
"name": "Airports",
"crs": { "type": "name", "properties": { "name": "urn:ogc:def:crs:OGC:1.3:CRS84" } },
"features": [
{ "type": "Feature", "properties": { "NAME": "Adak Apt", "OWNER": "DOT&PF Controlled", "ID": 1, "STATUS": "Standard", "REGION": "Southcoast", "LAT_DD": 51.8779639, "LONG_DD": -176.6460306, "FAA_ID": "ADK", "GlobalID": "707024c7-3356-4d09-ac0e-47b0f587abba", "OBJECTID": 1 }, "geometry": { "type": "Point", "coordinates": [ -176.64604649556199, 51.877962741096802 ] } },
{ "type": "Feature", "properties": { "NAME": "Atka Apt", "OWNER": "DOT&PF Controlled", "ID": 2, "STATUS": "Standard", "REGION": "Southcoast", "LAT_DD": 52.2205861, "LONG_DD": -174.2061833, "FAA_ID": "AKA", "GlobalID": "02152630-1e54-4d32-9d9e-c551933ac058", "OBJECTID": 2 }, "geometry": { "type": "Point", "coordinates": [ -174.206199711463, 52.2205851731023 ] } },
{ "type": "Feature", "properties": { "NAME": "Unalaska / Dutch Harbor Apt", "OWNER": "DOT&PF Controlled", "ID": 5, "STATUS": "Standard", "REGION": "Southcoast", "LAT_DD": 53.9001389, "LONG_DD": -166.5435, "FAA_ID": "DUT", "GlobalID": "9190816d-e6fd-409d-9340-fb4bb60c4871", "OBJECTID": 5 }, "geometry": { "type": "Point", "coordinates": [ -166.543518066759987, 53.900138712537803 ] } },
{ "type": "Feature", "properties": { "NAME": "Saint Paul Island Apt", "OWNER": "DOT&PF Controlled", "ID": 6, "STATUS": "Standard", "REGION": "Southcoast", "LAT_DD": 57.1662936, "LONG_DD": -170.2225533, "FAA_ID": "SNP", "GlobalID": "b8be9372-28f2-4286-8c69-926bcc390e01", "OBJECTID": 6 }, "geometry": { "type": "Point", "coordinates": [ -170.222572238813001, 57.166292526345302 ] } },
{ "type": "Feature", "properties": { "NAME": "Saint George Apt", "OWNER": "DOT&PF Controlled", "ID": 7, "STATUS": "Standard", "REGION": "Southcoast", "LAT_DD": 56.5773528, "LONG_DD": -169.6637361, "FAA_ID": "PBV", "GlobalID": "f63fa493-3193-47e0-9be7-2bf8599c37f5", "OBJECTID": 7 }, "geometry": { "type": "Point", "coordinates": [ -169.663754852587999, 56.577351875525302 ] } },
{ "type": "Feature", "properties": { "NAME": "Nelson Lagoon Apt", "OWNER": "DOT&PF Controlled", "ID": 8, "STATUS": "Standard", "REGION": "Southcoast", "LAT_DD": 56.0075361, "LONG_DD": -161.1603672, "FAA_ID": "OUL", "GlobalID": "6a18a9c5-3747-4119-901c-e2562c8b2c32", "OBJECTID": 8 }, "geometry": { "type": "Point", "coordinates": [ -161.160386696062005, 56.007536426732898 ] } },
{ "type": "Feature", "properties": { "NAME": "Sand Point Apt", "OWNER": "DOT&PF Controlled", "ID": 9, "STATUS": "Standard", "REGION": "Southcoast", "LAT_DD": 55.3136944, "LONG_DD": -160.5214167, "FAA_ID": "SDP", "GlobalID": "55957c4e-991a-4d91-a064-608dfdb1be3a", "OBJECTID": 9 }, "geometry": { "type": "Point", "coordinates": [ -160.521435942642995, 55.313694883072301 ] } },
{ "type": "Feature", "properties": { "NAME": "King Cove Apt", "OWNER": "DOT&PF Controlled", "ID": 10, "STATUS": "Standard", "REGION": "Southcoast", "LAT_DD": 55.1163475, "LONG_DD": -162.2662272, "FAA_ID": "KVC", "GlobalID": "81614e75-4a1e-4ccb-a1df-a1ef5a49e262", "OBJECTID": 10 }, "geometry": { "type": "Point", "coordinates": [ -162.266246207248003, 55.116347759315197 ] } },
{ "type": "Feature", "properties": { "NAME": "Cold Bay Apt", "OWNER": "DOT&PF Controlled", "ID": 11, "STATUS": "Standard", "REGION": "Southcoast", "LAT_DD": 55.20515, "LONG_DD": -162.7244662, "FAA_ID": "CDB", "GlobalID": "419968e4-3b32-41b2-98c2-5efe5d1e2210", "OBJECTID": 11 }, "geometry": { "type": "Point", "coordinates": [ -162.724485200965006, 55.205150186678502 ] } },
{ "type": "Feature", "properties": { "NAME": "False Pass Apt", "OWNER": "DOT&PF Controlled", "ID": 12, "STATUS": "SubStandard", "REGION": "Southcoast", "LAT_DD": 54.8474458, "LONG_DD": -163.4103222, "FAA_ID": "KFP", "GlobalID": "2453f3f2-9213-4ec5-a39e-d37ba35cf78f", "OBJECTID": 12 }, "geometry": { "type": "Point", "coordinates": [ -163.410340983042005, 54.847445928836599 ] } },
{ "type": "Feature", "properties": { "NAME": "Chignik Lake Apt", "OWNER": "DOT&PF Controlled", "ID": 13, "STATUS": "Standard", "REGION": "Southcoast", "LAT_DD": 56.2550472, "LONG_DD": -158.7753614, "FAA_ID": "A79", "GlobalID": "ca722937-f199-44cb-afb7-e0b0443c00a5", "OBJECTID": 13 }, "geometry": { "type": "Point", "coordinates": [ -158.775381201236002, 56.255047846568502 ] } },
{ "type": "Feature", "properties": { "NAME": "Perryville Apt", "OWNER": "DOT&PF Controlled", "ID": 14, "STATUS": "SubStandard", "REGION": "Southcoast", "LAT_DD": 55.9066667, "LONG_DD": -159.1608333, "FAA_ID": "PEV", "GlobalID": "f4e1921b-15bd-4e92-9586-97418d41f5ad", "OBJECTID": 14 }, "geometry": { "type": "Point", "coordinates": [ -159.160852911987007, 55.906667320672703 ] } },
{ "type": "Feature", "properties": { "NAME": "Chignik Lagoon Apt", "OWNER": "DOT&PF Controlled", "ID": 15, "STATUS": "SubStandard", "REGION": "Southcoast", "LAT_DD": 56.3110472, "LONG_DD": -158.5342667, "FAA_ID": "KCL", "GlobalID": "39d76dcb-4a67-4e8b-81d3-01eece697e87", "OBJECTID": 15 }, "geometry": { "type": "Point", "coordinates": [ -158.534286544256986, 56.311047875571703 ] } },
{ "type": "Feature", "properties": { "NAME": "Chignik Apt", "OWNER": "DOT&PF Controlled", "ID": 16, "STATUS": "SubStandard", "REGION": "Southcoast", "LAT_DD": 56.3114625, "LONG_DD": -158.3732369, "FAA_ID": "AJC", "GlobalID": "f22eb825-0368-40ce-aae3-d979334c6e02", "OBJECTID": 16 }, "geometry": { "type": "Point", "coordinates": [ -158.37325675627099, 56.311463199983002 ] } },
{ "type": "Feature", "properties": { "NAME": "Port Heiden Apt", "OWNER": "DOT&PF Controlled", "ID": 17, "STATUS": "Standard", "REGION": "Southcoast", "LAT_DD": 56.9591011, "LONG_DD": -158.6333619, "FAA_ID": "PTH", "GlobalID": "8e97e945-581e-4597-bf21-f1eeb9b72af4", "OBJECTID": 17 }, "geometry": { "type": "Point", "coordinates": [ -158.633382048073997, 56.959101703519799 ] } },
{ "type": "Feature", "properties": { "NAME": "Pilot Point Apt", "OWNER": "DOT&PF Controlled", "ID": 18, "STATUS": "Standard", "REGION": "Southcoast", "LAT_DD": 57.5803806, "LONG_DD": -157.5719569, "FAA_ID": "PNP", "GlobalID": "0bef1c08-bba8-4add-9830-9943b47d73d4", "OBJECTID": 18 }, "geometry": { "type": "Point", "coordinates": [ -157.571977436504, 57.5803813073368 ] } },
{ "type": "Feature", "properties": { "NAME": "Ugashik Apt", "OWNER": "DOT&PF Controlled", "ID": 19, "STATUS": "Standard", "REGION": "Southcoast", "LAT_DD": 57.523425, "LONG_DD": -157.3959944, "FAA_ID": "9A8", "GlobalID": "26123179-3a61-447b-b9db-d6ea540765e8", "OBJECTID": 19 }, "geometry": { "type": "Point", "coordinates": [ -157.396014918817002, 57.523425738611301 ] } },
{ "type": "Feature", "properties": { "NAME": "Karluk Apt", "OWNER": "DOT&PF Controlled", "ID": 20, "STATUS": "SubStandard", "REGION": "Southcoast", "LAT_DD": 57.5660861, "LONG_DD": -154.4538833, "FAA_ID": "KYK", "GlobalID": "cb83ae85-4c14-4c59-8543-b6e050d27cac", "OBJECTID": 20 }, "geometry": { "type": "Point", "coordinates": [ -154.453903998188991, 57.566087277517397 ] } },
{ "type": "Feature", "properties": { "NAME": "Larsen Bay Apt", "OWNER": "DOT&PF Controlled", "ID": 21, "STATUS": "SubStandard", "REGION": "Southcoast", "LAT_DD": 57.5350833, "LONG_DD": -153.9766667, "FAA_ID": "2A3", "GlobalID": "9375b6d5-878f-4641-b363-1ba91dd8898c", "OBJECTID": 21 }, "geometry": { "type": "Point", "coordinates": [ -153.97668740068201, 57.535084551806698 ] } },
{ "type": "Feature", "properties": { "NAME": "Akhiok Apt", "OWNER": "DOT&PF Controlled", "ID": 22, "STATUS": "Standard", "REGION": "Southcoast", "LAT_DD": 56.9386908, "LONG_DD": -154.1825556, "FAA_ID": "AKK", "GlobalID": "47fce919-2f1c-4796-80ea-28f0021e2c10", "OBJECTID": 22 }, "geometry": { "type": "Point", "coordinates": [ -154.182575989593005, 56.938692065115397 ] } },
{ "type": "Feature", "properties": { "NAME": "Port Lions Apt", "OWNER": "DOT&PF Controlled", "ID": 23, "STATUS": "SubStandard", "REGION": "Southcoast", "LAT_DD": 57.8853775, "LONG_DD": -152.8461011, "FAA_ID": "ORI", "GlobalID": "692fbb22-6d09-4b70-9b56-81ddc7f115ed", "OBJECTID": 23 }, "geometry": { "type": "Point", "coordinates": [ -152.846122027640007, 57.885378898413997 ] } },
{ "type": "Feature", "properties": { "NAME": "Ouzinkie Apt", "OWNER": "DOT&PF Controlled", "ID": 24, "STATUS": "SubStandard", "REGION": "Southcoast", "LAT_DD": 57.9255, "LONG_DD": -152.4965, "FAA_ID": "4K5", "GlobalID": "1627d839-2dc8-4314-a194-9a9be9337950", "OBJECTID": 24 }, "geometry": { "type": "Point", "coordinates": [ -152.496520957906, 57.925501448879402 ] } },
{ "type": "Feature", "properties": { "NAME": "Kodiak Apt", "OWNER": "DOT&PF Controlled", "ID": 25, "STATUS": "Standard", "REGION": "Southcoast", "LAT_DD": 57.75177091, "LONG_DD": -152.49422948, "FAA_ID": "ADQ", "GlobalID": "4f11d14f-de37-4a07-823d-fe3bbd58b783", "OBJECTID": 25 }, "geometry": { "type": "Point", "coordinates": [ -152.494250348614997, 57.751772371270803 ] } },
{ "type": "Feature", "properties": { "NAME": "Old Harbor Apt", "OWNER": "DOT&PF Controlled", "ID": 26, "STATUS": "SubStandard", "REGION": "Southcoast", "LAT_DD": 57.2181031, "LONG_DD": -153.2697494, "FAA_ID": "6R7", "GlobalID": "21c855d0-cc2a-4aac-a53a-574457594b03", "OBJECTID": 26 }, "geometry": { "type": "Point", "coordinates": [ -153.269769964354992, 57.218104480867801 ] } },
{ "type": "Feature", "properties": { "NAME": "Naknek Apt", "OWNER": "DOT&PF Controlled", "ID": 27, "STATUS": "SubStandard", "REGION": "Southcoast", "LAT_DD": 58.7328806, "LONG_DD": -157.0199197, "FAA_ID": "5NK", "GlobalID": "0aeac30d-59af-4005-b872-9f1a59dd80dd", "OBJECTID": 27 }, "geometry": { "type": "Point", "coordinates": [ -157.019940897507013, 58.732881292671301 ] } },
{ "type": "Feature", "properties": { "NAME": "South Naknek No 2 Apt", "OWNER": "DOT&PF Controlled", "ID": 28, "STATUS": "Standard", "REGION": "Southcoast", "LAT_DD": 58.7020833, "LONG_DD": -157.0025833, "FAA_ID": "WSN", "GlobalID": "67275b02-d135-4dff-95a3-6cfd6f1991ba", "OBJECTID": 28 }, "geometry": { "type": "Point", "coordinates": [ -157.002604480216007, 58.702083998500498 ] } },
{ "type": "Feature", "properties": { "NAME": "King Salmon Apt", "OWNER": "DOT&PF Controlled", "ID": 29, "STATUS": "Standard", "REGION": "Southcoast", "LAT_DD": 58.6764935, "LONG_DD": -156.648691, "FAA_ID": "AKN", "GlobalID": "d00143cb-c736-4012-8685-1f7b7f6cca76", "OBJECTID": 29 }, "geometry": { "type": "Point", "coordinates": [ -156.648712187645998, 58.676494254949802 ] } },
{ "type": "Feature", "properties": { "NAME": "Quinhagak Apt", "OWNER": "Other Government", "ID": 30, "STATUS": "Other", "REGION": "Central", "LAT_DD": 59.7550944, "LONG_DD": -161.8453667, "FAA_ID": "AQH", "GlobalID": "55e38b28-f6b9-4df5-a20e-0e571a464feb", "OBJECTID": 30 }, "geometry": { "type": "Point", "coordinates": [ -161.845388093151001, 59.755094259000998 ] } },
{ "type": "Feature", "properties": { "NAME": "Kongiganak Apt", "OWNER": "DOT&PF Controlled", "ID": 31, "STATUS": "SubStandard", "REGION": "Central", "LAT_DD": 59.9608056, "LONG_DD": -162.88125, "FAA_ID": "DUY", "GlobalID": "eba0765e-748e-4475-8c9a-ab772a3d03ab", "OBJECTID": 31 }, "geometry": { "type": "Point", "coordinates": [ -162.881271408208988, 59.960805281042198 ] } },
{ "type": "Feature", "properties": { "NAME": "Goodnews Apt", "OWNER": "DOT&PF Controlled", "ID": 32, "STATUS": "SubStandard", "REGION": "Central", "LAT_DD": 59.1174167, "LONG_DD": -161.5774444, "FAA_ID": "GNU", "GlobalID": "5b90d619-1c69-4bfe-91db-98ef04c45d7b", "OBJECTID": 32 }, "geometry": { "type": "Point", "coordinates": [ -161.577465446428988, 59.117416661953399 ] } },
{ "type": "Feature", "properties": { "NAME": "Platinum Apt", "OWNER": "DOT&PF Controlled", "ID": 33, "STATUS": "Standard", "REGION": "Central", "LAT_DD": 59.0157361, "LONG_DD": -161.8252111, "FAA_ID": "PTU", "GlobalID": "d614a69b-8db9-4cf9-a2a6-56c6fa2b7406", "OBJECTID": 33 }, "geometry": { "type": "Point", "coordinates": [ -161.825232063611992, 59.015736035560103 ] } },
{ "type": "Feature", "properties": { "NAME": "Togiak Apt", "OWNER": "DOT&PF Controlled", "ID": 34, "STATUS": "Standard", "REGION": "Central", "LAT_DD": 59.0536261, "LONG_DD": -160.3969242, "FAA_ID": "TOG", "GlobalID": "e3176d94-b064-4095-bda2-e9f455a0cbb0", "OBJECTID": 34 }, "geometry": { "type": "Point", "coordinates": [ -160.396945320849994, 59.053626249377501 ] } },
{ "type": "Feature", "properties": { "NAME": "Twin Hills Apt", "OWNER": "DOT&PF Controlled", "ID": 35, "STATUS": "Standard", "REGION": "Central", "LAT_DD": 59.074525, "LONG_DD": -160.2750417, "FAA_ID": "A63", "GlobalID": "c7e7e24d-d6b3-47f2-bee6-2d50e3a4bc52", "OBJECTID": 35 }, "geometry": { "type": "Point", "coordinates": [ -160.275062842500006, 59.074525164854698 ] } },
{ "type": "Feature", "properties": { "NAME": "Manokotak Apt", "OWNER": "DOT&PF Controlled", "ID": 36, "STATUS": "SubStandard", "REGION": "Central", "LAT_DD": 58.9320583, "LONG_DD": -158.9018972, "FAA_ID": "MBA", "GlobalID": "d4b34648-a7d7-44d5-8e82-07eeb76cc727", "OBJECTID": 36 }, "geometry": { "type": "Point", "coordinates": [ -158.901918375650013, 58.9320586886694 ] } },
{ "type": "Feature", "properties": { "NAME": "Aleknagik Apt", "OWNER": "DOT&PF Controlled", "ID": 37, "STATUS": "SubStandard", "REGION": "Central", "LAT_DD": 59.2825556, "LONG_DD": -158.6178667, "FAA_ID": "5A8", "GlobalID": "370afa81-9c2e-4ef9-abd3-dcd1c08f8c74", "OBJECTID": 37 }, "geometry": { "type": "Point", "coordinates": [ -158.617888102942999, 59.282555999412402 ] } },
{ "type": "Feature", "properties": { "NAME": "Dillingham Apt", "OWNER": "DOT&PF Controlled", "ID": 38, "STATUS": "Standard", "REGION": "Central", "LAT_DD": 59.0446667, "LONG_DD": -158.5055, "FAA_ID": "DLG", "GlobalID": "de6ffe65-1179-46cb-94c2-801adf79111b", "OBJECTID": 38 }, "geometry": { "type": "Point", "coordinates": [ -158.505521272072002, 59.044667138269801 ] } },
{ "type": "Feature", "properties": { "NAME": "Clarks Point Apt", "OWNER": "DOT&PF Controlled", "ID": 39, "STATUS": "Standard", "REGION": "Central", "LAT_DD": 58.8336944, "LONG_DD": -158.5293889, "FAA_ID": "CLP", "GlobalID": "3396ab88-0ad8-44b5-9c97-6211686038fd", "OBJECTID": 39 }, "geometry": { "type": "Point", "coordinates": [ -158.529410048633991, 58.833694854507399 ] } },
{ "type": "Feature", "properties": { "NAME": "Portage Creek Apt", "OWNER": "DOT&PF Controlled", "ID": 40, "STATUS": "SubStandard", "REGION": "Central", "LAT_DD": 58.906525, "LONG_DD": -157.7111667, "FAA_ID": "A14", "GlobalID": "5c05cd2d-fa3f-4043-b80b-5d98bdaca318", "OBJECTID": 40 }, "geometry": { "type": "Point", "coordinates": [ -157.711187949444991, 58.906525573358799 ] } },
{ "type": "Feature", "properties": { "NAME": "Ekwok Apt", "OWNER": "DOT&PF Controlled", "ID": 41, "STATUS": "SubStandard", "REGION": "Central", "LAT_DD": 59.3548056, "LONG_DD": -157.4720833, "FAA_ID": "KEK", "GlobalID": "714d4008-3e6e-4b08-b296-4ae5831bf153", "OBJECTID": 41 }, "geometry": { "type": "Point", "coordinates": [ -157.472104828812007, 59.354806170908603 ] } },
{ "type": "Feature", "properties": { "NAME": "New Stuyahok Apt", "OWNER": "DOT&PF Controlled", "ID": 42, "STATUS": "SubStandard", "REGION": "Central", "LAT_DD": 59.4515375, "LONG_DD": -157.3731639, "FAA_ID": "KNW", "GlobalID": "d9698a7f-45d0-4b5b-b752-a56afbc293ba", "OBJECTID": 42 }, "geometry": { "type": "Point", "coordinates": [ -157.373185493036999, 59.4515380778533 ] } },
{ "type": "Feature", "properties": { "NAME": "Koliganek Apt", "OWNER": "DOT&PF Controlled", "ID": 43, "STATUS": "Standard", "REGION": "Central", "LAT_DD": 59.7266419, "LONG_DD": -157.2594722, "FAA_ID": "JZZ", "GlobalID": "4d87ed2f-0bb8-4d16-a1ce-75ee78fa0cbf", "OBJECTID": 43 }, "geometry": { "type": "Point", "coordinates": [ -157.25949396638299, 59.726642471987802 ] } },
{ "type": "Feature", "properties": { "NAME": "Igiugig Apt", "OWNER": "DOT&PF Controlled", "ID": 44, "STATUS": "Standard", "REGION": "Southcoast", "LAT_DD": 59.3240417, "LONG_DD": -155.9017728, "FAA_ID": "IGG", "GlobalID": "84a0d55b-b7db-4080-bbf1-5ca790ef348a", "OBJECTID": 44 }, "geometry": { "type": "Point", "coordinates": [ -155.901794407891998, 59.324042517738597 ] } },
{ "type": "Feature", "properties": { "NAME": "Levelock Apt", "OWNER": "DOT&PF Controlled", "ID": 45, "STATUS": "Standard", "REGION": "Southcoast", "LAT_DD": 59.1280833, "LONG_DD": -156.8586389, "FAA_ID": "9Z8", "GlobalID": "921796a9-addc-45ec-85f6-72cb5e9273a2", "OBJECTID": 45 }, "geometry": { "type": "Point", "coordinates": [ -156.858660333909, 59.128083985399499 ] } },
{ "type": "Feature", "properties": { "NAME": "Nondalton Apt", "OWNER": "DOT&PF Controlled", "ID": 46, "STATUS": "SubStandard", "REGION": "Southcoast", "LAT_DD": 59.9802303, "LONG_DD": -154.8391747, "FAA_ID": "5NN", "GlobalID": "ca4876f2-c330-4dc4-9a55-2220b650db80", "OBJECTID": 46 }, "geometry": { "type": "Point", "coordinates": [ -154.839196766235005, 59.980231231613899 ] } },
{ "type": "Feature", "properties": { "NAME": "Pedro Bay Apt", "OWNER": "DOT&PF Controlled", "ID": 47, "STATUS": "Standard", "REGION": "Southcoast", "LAT_DD": 59.7969556, "LONG_DD": -154.1299778, "FAA_ID": "4K0", "GlobalID": "2e903fe8-bcbe-442b-9a07-672724142d4f", "OBJECTID": 47 }, "geometry": { "type": "Point", "coordinates": [ -154.129999785900992, 59.7969566576555 ] } },
{ "type": "Feature", "properties": { "NAME": "Iliamna Apt", "OWNER": "DOT&PF Controlled", "ID": 48, "STATUS": "Standard", "REGION": "Southcoast", "LAT_DD": 59.77197646, "LONG_DD": -154.91497534000001, "FAA_ID": "ILI", "GlobalID": "da142872-f899-42c8-919a-3bcc5e9e19b7", "OBJECTID": 48 }, "geometry": { "type": "Point", "coordinates": [ -154.914997267139995, 59.771977394689699 ] } },
{ "type": "Feature", "properties": { "NAME": "Kokhanok Apt", "OWNER": "DOT&PF Controlled", "ID": 50, "STATUS": "SubStandard", "REGION": "Southcoast", "LAT_DD": 59.43306315, "LONG_DD": -154.80466088, "FAA_ID": "9K2", "GlobalID": "2d0d01c3-20ea-40c2-ae3a-1bae9ea0de50", "OBJECTID": 50 }, "geometry": { "type": "Point", "coordinates": [ -154.804682614910007, 59.4330641289433 ] } },
{ "type": "Feature", "properties": { "NAME": "Hooper Bay Apt", "OWNER": "DOT&PF Controlled", "ID": 51, "STATUS": "Standard", "REGION": "Central", "LAT_DD": 61.5238611, "LONG_DD": -166.1466389, "FAA_ID": "HPB", "GlobalID": "12dc1005-15dc-4b48-96c2-641714edc896", "OBJECTID": 51 }, "geometry": { "type": "Point", "coordinates": [ -166.14666090015001, 61.523860113047697 ] } },
{ "type": "Feature", "properties": { "NAME": "Chevak Apt", "OWNER": "DOT&PF Controlled", "ID": 52, "STATUS": "SubStandard", "REGION": "Central", "LAT_DD": 61.5408453, "LONG_DD": -165.6008919, "FAA_ID": "VAK", "GlobalID": "b26afdf7-c0ee-46ac-b364-d369a5d14868", "OBJECTID": 52 }, "geometry": { "type": "Point", "coordinates": [ -165.600913987490998, 61.540844395120303 ] } },
{ "type": "Feature", "properties": { "NAME": "Mekoryuk Apt", "OWNER": "DOT&PF Controlled", "ID": 53, "STATUS": "Standard", "REGION": "Central", "LAT_DD": 60.37142, "LONG_DD": -166.2706083, "FAA_ID": "MYU", "GlobalID": "d15141f9-767e-4a9a-a290-90d7e1f78be2", "OBJECTID": 53 }, "geometry": { "type": "Point", "coordinates": [ -166.270629537750011, 60.371419120629 ] } },
{ "type": "Feature", "properties": { "NAME": "Tununak Apt", "OWNER": "DOT&PF Controlled", "ID": 54, "STATUS": "SubStandard", "REGION": "Central", "LAT_DD": 60.5755469, "LONG_DD": -165.2716483, "FAA_ID": "4KA", "GlobalID": "a96aded2-1ef1-4420-8c97-bec9a7ca5eb8", "OBJECTID": 54 }, "geometry": { "type": "Point", "coordinates": [ -165.271669800374013, 60.575546149527 ] } },
{ "type": "Feature", "properties": { "NAME": "Toksook Bay Apt", "OWNER": "DOT&PF Controlled", "ID": 55, "STATUS": "SubStandard", "REGION": "Central", "LAT_DD": 60.5413361, "LONG_DD": -165.0871847, "FAA_ID": "OOK", "GlobalID": "4a251381-3467-4a94-baa8-d1a60f91bd6a", "OBJECTID": 55 }, "geometry": { "type": "Point", "coordinates": [ -165.087206202024987, 60.541335381216399 ] } },
{ "type": "Feature", "properties": { "NAME": "Nightmute Apt", "OWNER": "DOT&PF Controlled", "ID": 56, "STATUS": "SubStandard", "REGION": "Central", "LAT_DD": 60.4710472, "LONG_DD": -164.7008389, "FAA_ID": "IGT", "GlobalID": "f7e3f61a-c5e5-48ea-b358-62d66d3f39eb", "OBJECTID": 56 }, "geometry": { "type": "Point", "coordinates": [ -164.70086040726801, 60.471046548584702 ] } },
{ "type": "Feature", "properties": { "NAME": "Newtok Apt", "OWNER": "DOT&PF Controlled", "ID": 57, "STATUS": "SubStandard", "REGION": "Central", "LAT_DD": 60.9391389, "LONG_DD": -164.64125, "FAA_ID": "EWU", "GlobalID": "51586b27-f807-47a1-ad32-f38a350d6652", "OBJECTID": 57 }, "geometry": { "type": "Point", "coordinates": [ -164.64127181371299, 60.939138207861902 ] } },
{ "type": "Feature", "properties": { "NAME": "Chefornak Apt", "OWNER": "DOT&PF Controlled", "ID": 58, "STATUS": "SubStandard", "REGION": "Central", "LAT_DD": 60.13819592, "LONG_DD": -164.27929765, "FAA_ID": "CFK", "GlobalID": "a8ad0e96-a9d6-41b8-90e9-7f413e129dd2", "OBJECTID": 58 }, "geometry": { "type": "Point", "coordinates": [ -164.27931900367301, 60.138195373065997 ] } },
{ "type": "Feature", "properties": { "NAME": "Kipnuk Apt", "OWNER": "DOT&PF Controlled", "ID": 59, "STATUS": "SubStandard", "REGION": "Central", "LAT_DD": 59.9329511, "LONG_DD": -164.0305131, "FAA_ID": "IIK", "GlobalID": "e5fd34d3-a1fb-4404-92b7-54a211df74ae", "OBJECTID": 59 }, "geometry": { "type": "Point", "coordinates": [ -164.030534358594991, 59.932950608460999 ] } },
{ "type": "Feature", "properties": { "NAME": "Kwigillingok Apt", "OWNER": "DOT&PF Controlled", "ID": 60, "STATUS": "SubStandard", "REGION": "Central", "LAT_DD": 59.8764694, "LONG_DD": -163.1685375, "FAA_ID": "GGV", "GlobalID": "a5fa645c-9623-4096-90ab-91822e944fb4", "OBJECTID": 60 }, "geometry": { "type": "Point", "coordinates": [ -163.168558824559, 59.876469044678799 ] } },
{ "type": "Feature", "properties": { "NAME": "Tuntutuliak Apt", "OWNER": "DOT&PF Controlled", "ID": 61, "STATUS": "SubStandard", "REGION": "Central", "LAT_DD": 60.3353456, "LONG_DD": -162.6670094, "FAA_ID": "A61", "GlobalID": "df889134-1775-4827-ab2f-0b363a329647", "OBJECTID": 61 }, "geometry": { "type": "Point", "coordinates": [ -162.667031063637012, 60.335345275358499 ] } },
{ "type": "Feature", "properties": { "NAME": "Eek Apt", "OWNER": "DOT&PF Controlled", "ID": 62, "STATUS": "SubStandard", "REGION": "Central", "LAT_DD": 60.2136711, "LONG_DD": -162.0438931, "FAA_ID": "EEK", "GlobalID": "12ef7e3c-9697-4f8b-83f3-5e0ba4d61871", "OBJECTID": 62 }, "geometry": { "type": "Point", "coordinates": [ -162.043914754306996, 60.213670883568398 ] } },
{ "type": "Feature", "properties": { "NAME": "Marshall Apt", "OWNER": "DOT&PF Controlled", "ID": 63, "STATUS": "Standard", "REGION": "Northern", "LAT_DD": 61.8642778, "LONG_DD": -162.0261097, "FAA_ID": "MDM", "GlobalID": "8f9ea9af-86d6-4d9a-958c-9002099cfb3d", "OBJECTID": 63 }, "geometry": { "type": "Point", "coordinates": [ -162.026132457881999, 61.8642774241018 ] } },
{ "type": "Feature", "properties": { "NAME": "Russian Mission Apt", "OWNER": "DOT&PF Controlled", "ID": 64, "STATUS": "Standard", "REGION": "Northern", "LAT_DD": 61.7748903, "LONG_DD": -161.3193986, "FAA_ID": "RSH", "GlobalID": "89ac3363-a9bd-448f-9941-83dfbdf8abc8", "OBJECTID": 64 }, "geometry": { "type": "Point", "coordinates": [ -161.319421370117993, 61.7748900447178 ] } },
{ "type": "Feature", "properties": { "NAME": "Kalskag Apt", "OWNER": "DOT&PF Controlled", "ID": 65, "STATUS": "Standard", "REGION": "Central", "LAT_DD": 61.5362739, "LONG_DD": -160.3413306, "FAA_ID": "KLG", "GlobalID": "30b13c54-5023-42d9-af6b-55397f43fc97", "OBJECTID": 65 }, "geometry": { "type": "Point", "coordinates": [ -160.341353299795003, 61.536273822793902 ] } },
{ "type": "Feature", "properties": { "NAME": "Aniak Apt", "OWNER": "DOT&PF Controlled", "ID": 66, "STATUS": "Standard", "REGION": "Central", "LAT_DD": 61.5815969, "LONG_DD": -159.5430428, "FAA_ID": "ANI", "GlobalID": "34637783-0cc1-4e98-be1a-0c21919ceba3", "OBJECTID": 66 }, "geometry": { "type": "Point", "coordinates": [ -159.543065605627987, 61.581596946898799 ] } },
{ "type": "Feature", "properties": { "NAME": "Chuathbaluk Apt", "OWNER": "DOT&PF Controlled", "ID": 67, "STATUS": "Standard", "REGION": "Central", "LAT_DD": 61.5790556, "LONG_DD": -159.2156389, "FAA_ID": "9A3", "GlobalID": "11845215-bd14-47e4-b3fd-bbb7c8088697", "OBJECTID": 67 }, "geometry": { "type": "Point", "coordinates": [ -159.215661733974997, 61.579055699849697 ] } },
{ "type": "Feature", "properties": { "NAME": "Crooked Creek Apt", "OWNER": "DOT&PF Controlled", "ID": 68, "STATUS": "SubStandard", "REGION": "Central", "LAT_DD": 61.8678611, "LONG_DD": -158.1349167, "FAA_ID": "CJX", "GlobalID": "c81cba75-59ec-4ed0-93c3-fd371d2c27a9", "OBJECTID": 68 }, "geometry": { "type": "Point", "coordinates": [ -158.134939830457, 61.867861347185602 ] } },
{ "type": "Feature", "properties": { "NAME": "Nunapitchuk Apt", "OWNER": "DOT&PF Controlled", "ID": 69, "STATUS": "SubStandard", "REGION": "Central", "LAT_DD": 60.9060108, "LONG_DD": -162.4405911, "FAA_ID": "16A", "GlobalID": "af316967-853e-4dc2-80f2-dea2f03415dd", "OBJECTID": 69 }, "geometry": { "type": "Point", "coordinates": [ -162.440613155525995, 60.906010453451898 ] } },
{ "type": "Feature", "properties": { "NAME": "Kasigluk Apt", "OWNER": "DOT&PF Controlled", "ID": 70, "STATUS": "Standard", "REGION": "Central", "LAT_DD": 60.8733333, "LONG_DD": -162.5243056, "FAA_ID": "Z09", "GlobalID": "cd320a20-ab8a-45d2-905f-92da759ad452", "OBJECTID": 70 }, "geometry": { "type": "Point", "coordinates": [ -162.524327622978007, 60.873332942719102 ] } },
{ "type": "Feature", "properties": { "NAME": "Atmautluak Apt", "OWNER": "DOT&PF Controlled", "ID": 71, "STATUS": "SubStandard", "REGION": "Central", "LAT_DD": 60.8671389, "LONG_DD": -162.2733889, "FAA_ID": "4A2", "GlobalID": "80a45599-51f6-4e31-a136-c1d6bda96900", "OBJECTID": 71 }, "geometry": { "type": "Point", "coordinates": [ -162.273410947407001, 60.867138582610401 ] } },
{ "type": "Feature", "properties": { "NAME": "Tuluksak Apt", "OWNER": "DOT&PF Controlled", "ID": 72, "STATUS": "SubStandard", "REGION": "Central", "LAT_DD": 61.0968333, "LONG_DD": -160.9694722, "FAA_ID": "TLT", "GlobalID": "d63cde19-ba44-48c4-aa97-a95550300e9c", "OBJECTID": 72 }, "geometry": { "type": "Point", "coordinates": [ -160.969494536743014, 61.096833165108599 ] } },
{ "type": "Feature", "properties": { "NAME": "Akiachak Apt", "OWNER": "DOT&PF Controlled", "ID": 73, "STATUS": "SubStandard", "REGION": "Central", "LAT_DD": 60.9048333, "LONG_DD": -161.4224444, "FAA_ID": "Z13", "GlobalID": "0edaea0a-dc71-4b0a-bce4-1a186de3fbc5", "OBJECTID": 73 }, "geometry": { "type": "Point", "coordinates": [ -161.422466562831005, 60.9048331120893 ] } },
{ "type": "Feature", "properties": { "NAME": "Akiak Apt", "OWNER": "DOT&PF Controlled", "ID": 74, "STATUS": "Standard", "REGION": "Central", "LAT_DD": 60.9028889, "LONG_DD": -161.2305833, "FAA_ID": "AKI", "GlobalID": "f442be46-aea6-4891-b8e2-5bfbe69e28dd", "OBJECTID": 74 }, "geometry": { "type": "Point", "coordinates": [ -161.230605481830992, 60.902888743596499 ] } },
{ "type": "Feature", "properties": { "NAME": "Kwethluk Apt", "OWNER": "DOT&PF Controlled", "ID": 75, "STATUS": "SubStandard", "REGION": "Central", "LAT_DD": 60.7903333, "LONG_DD": -161.4436944, "FAA_ID": "KWT", "GlobalID": "8cc39f74-f722-4806-b1ce-aa2e8043fe75", "OBJECTID": 75 }, "geometry": { "type": "Point", "coordinates": [ -161.443716484484014, 60.790333120023902 ] } },
{ "type": "Feature", "properties": { "NAME": "Napaskiak Apt", "OWNER": "DOT&PF Controlled", "ID": 76, "STATUS": "Standard", "REGION": "Central", "LAT_DD": 60.7029167, "LONG_DD": -161.7783056, "FAA_ID": "PKA", "GlobalID": "9a24e74c-18a6-40f3-8efe-ea28e7f38c27", "OBJECTID": 76 }, "geometry": { "type": "Point", "coordinates": [ -161.778327594270991, 60.702916475995004 ] } },
{ "type": "Feature", "properties": { "NAME": "Napakiak Apt", "OWNER": "DOT&PF Controlled", "ID": 77, "STATUS": "Standard", "REGION": "Central", "LAT_DD": 60.6903333, "LONG_DD": -161.9785, "FAA_ID": "WNA", "GlobalID": "57516d93-7c58-4799-b20c-84c633576abd", "OBJECTID": 77 }, "geometry": { "type": "Point", "coordinates": [ -161.978521965131989, 60.6903330459429 ] } },
{ "type": "Feature", "properties": { "NAME": "Bethel Apt", "OWNER": "DOT&PF Controlled", "ID": 78, "STATUS": "Standard", "REGION": "Central", "LAT_DD": 60.7785568, "LONG_DD": -161.8371774, "FAA_ID": "BET", "GlobalID": "000a74c1-874c-4b91-96a6-1981b546f627", "OBJECTID": 78 }, "geometry": { "type": "Point", "coordinates": [ -161.837199435281008, 60.778556560213602 ] } },
{ "type": "Feature", "properties": { "NAME": "Shaktoolik Apt", "OWNER": "DOT&PF Controlled", "ID": 79, "STATUS": "Standard", "REGION": "Northern", "LAT_DD": 64.3710833, "LONG_DD": -161.2239722, "FAA_ID": "2C7", "GlobalID": "b69f29de-e2bd-4f5e-8b5b-de047f145af7", "OBJECTID": 79 }, "geometry": { "type": "Point", "coordinates": [ -161.223997040894005, 64.371082810394896 ] } },
{ "type": "Feature", "properties": { "NAME": "Kaltag Apt", "OWNER": "DOT&PF Controlled", "ID": 80, "STATUS": "Standard", "REGION": "Northern", "LAT_DD": 64.31898, "LONG_DD": -158.7413058, "FAA_ID": "KAL", "GlobalID": "64e1e1eb-239a-45f9-9b19-5332934fb013", "OBJECTID": 80 }, "geometry": { "type": "Point", "coordinates": [ -158.741330852655011, 64.318979930406698 ] } },
{ "type": "Feature", "properties": { "NAME": "Unalakleet Apt", "OWNER": "DOT&PF Controlled", "ID": 81, "STATUS": "Standard", "REGION": "Northern", "LAT_DD": 63.8884956, "LONG_DD": -160.7991109, "FAA_ID": "UNK", "GlobalID": "4cce60de-8c24-4257-a367-9d9ef8784256", "OBJECTID": 81 }, "geometry": { "type": "Point", "coordinates": [ -160.799135371620991, 63.888495226764 ] } },
{ "type": "Feature", "properties": { "NAME": "Stebbins Apt", "OWNER": "DOT&PF Controlled", "ID": 82, "STATUS": "Standard", "REGION": "Northern", "LAT_DD": 63.5159708, "LONG_DD": -162.2779931, "FAA_ID": "WBB", "GlobalID": "6df76f15-ee1e-4c4b-8b24-88060dfa9e81", "OBJECTID": 82 }, "geometry": { "type": "Point", "coordinates": [ -162.278017092472993, 63.515970220673204 ] } },
{ "type": "Feature", "properties": { "NAME": "Saint Michael Apt", "OWNER": "DOT&PF Controlled", "ID": 83, "STATUS": "Standard", "REGION": "Northern", "LAT_DD": 63.4900556, "LONG_DD": -162.1103889, "FAA_ID": "SMK", "GlobalID": "fc37ab92-a897-482e-bd56-3de913c75f84", "OBJECTID": 83 }, "geometry": { "type": "Point", "coordinates": [ -162.110412888366, 63.490055049430602 ] } },
{ "type": "Feature", "properties": { "NAME": "Kotlik Apt", "OWNER": "DOT&PF Controlled", "ID": 84, "STATUS": "Standard", "REGION": "Northern", "LAT_DD": 63.0305833, "LONG_DD": -163.5326389, "FAA_ID": "2A9", "GlobalID": "c2f2795e-d6c2-4a8a-943a-e414f3ef141c", "OBJECTID": 84 }, "geometry": { "type": "Point", "coordinates": [ -163.532662348299993, 63.030582565892303 ] } },
{ "type": "Feature", "properties": { "NAME": "Emmonak Apt", "OWNER": "DOT&PF Controlled", "ID": 85, "STATUS": "Standard", "REGION": "Northern", "LAT_DD": 62.7861389, "LONG_DD": -164.49075, "FAA_ID": "ENM", "GlobalID": "61d3bfd5-8007-470b-8ed1-ac7b96abde1f", "OBJECTID": 85 }, "geometry": { "type": "Point", "coordinates": [ -164.490773135999007, 62.786138036488403 ] } },
{ "type": "Feature", "properties": { "NAME": "Alakanuk Apt", "OWNER": "DOT&PF Controlled", "ID": 86, "STATUS": "SubStandard", "REGION": "Northern", "LAT_DD": 62.68305, "LONG_DD": -164.72222, "FAA_ID": "AUK", "GlobalID": "78c3b3fd-1235-4ccd-893d-acce482b7c0e", "OBJECTID": 86 }, "geometry": { "type": "Point", "coordinates": [ -164.722243026564001, 62.683049112027298 ] } },
{ "type": "Feature", "properties": { "NAME": "Nunam Iqua Apt", "OWNER": "DOT&PF Controlled", "ID": 87, "STATUS": "SubStandard", "REGION": "Northern", "LAT_DD": 62.5205556, "LONG_DD": -164.8477778, "FAA_ID": "SXP", "GlobalID": "76b16fb5-250a-4808-8b4e-cee0a12c345f", "OBJECTID": 87 }, "geometry": { "type": "Point", "coordinates": [ -164.847800687224009, 62.520554708240098 ] } },
{ "type": "Feature", "properties": { "NAME": "Scammon Bay Apt", "OWNER": "DOT&PF Controlled", "ID": 88, "STATUS": "SubStandard", "REGION": "Central", "LAT_DD": 61.8445411, "LONG_DD": -165.5737493, "FAA_ID": "SCM", "GlobalID": "9feaa9ff-8eb4-4ff5-a123-0206b0bb1755", "OBJECTID": 88 }, "geometry": { "type": "Point", "coordinates": [ -165.573771602, 61.844540167485697 ] } },
{ "type": "Feature", "properties": { "NAME": "Mountain Village Apt", "OWNER": "DOT&PF Controlled", "ID": 89, "STATUS": "Standard", "REGION": "Northern", "LAT_DD": 62.0953622, "LONG_DD": -163.6820594, "FAA_ID": "MOU", "GlobalID": "e3b091b2-667b-41c9-8813-dd0f3e335c56", "OBJECTID": 89 }, "geometry": { "type": "Point", "coordinates": [ -163.682082127775999, 62.095361536815801 ] } },
{ "type": "Feature", "properties": { "NAME": "Saint Mary's Apt", "OWNER": "DOT&PF Controlled", "ID": 90, "STATUS": "Standard", "REGION": "Northern", "LAT_DD": 62.0608333, "LONG_DD": -163.3018333, "FAA_ID": "KSM", "GlobalID": "14887651-8985-4c88-b44c-b50e87559fdf", "OBJECTID": 90 }, "geometry": { "type": "Point", "coordinates": [ -163.301856051713003, 62.060832701680503 ] } },
{ "type": "Feature", "properties": { "NAME": "Holy Cross Apt", "OWNER": "DOT&PF Controlled", "ID": 92, "STATUS": "Standard", "REGION": "Northern", "LAT_DD": 62.1883333, "LONG_DD": -159.7749167, "FAA_ID": "HCA", "GlobalID": "f87450d2-d1bb-46d5-a3ab-01d82a905b49", "OBJECTID": 92 }, "geometry": { "type": "Point", "coordinates": [ -159.774939924738987, 62.1883332539403 ] } },
{ "type": "Feature", "properties": { "NAME": "Anvik Apt", "OWNER": "DOT&PF Controlled", "ID": 93, "STATUS": "Standard", "REGION": "Northern", "LAT_DD": 62.6473278, "LONG_DD": -160.1900667, "FAA_ID": "ANV", "GlobalID": "dc6ab7c1-d014-48e6-9589-ce2e708fbdd1", "OBJECTID": 93 }, "geometry": { "type": "Point", "coordinates": [ -160.190090229903007, 62.647327643557503 ] } },
{ "type": "Feature", "properties": { "NAME": "Grayling Apt", "OWNER": "DOT&PF Controlled", "ID": 94, "STATUS": "SubStandard", "REGION": "Northern", "LAT_DD": 62.8945606, "LONG_DD": -160.0649042, "FAA_ID": "KGX", "GlobalID": "249cefa4-5b36-479f-819f-e5b9bc4a8f23", "OBJECTID": 94 }, "geometry": { "type": "Point", "coordinates": [ -160.064927933071999, 62.894560440051499 ] } },
{ "type": "Feature", "properties": { "NAME": "Shageluk Apt", "OWNER": "DOT&PF Controlled", "ID": 95, "STATUS": "Standard", "REGION": "Northern", "LAT_DD": 62.6923056, "LONG_DD": -159.5692222, "FAA_ID": "SHX", "GlobalID": "e030847d-f87a-48ff-b56f-3a25c97a94d8", "OBJECTID": 95 }, "geometry": { "type": "Point", "coordinates": [ -159.569245824342005, 62.692305541480799 ] } },
{ "type": "Feature", "properties": { "NAME": "Flat Apt", "OWNER": "DOT&PF Controlled", "ID": 96, "STATUS": "Standard", "REGION": "Central", "LAT_DD": 62.4526489, "LONG_DD": -157.98907, "FAA_ID": "FLT", "GlobalID": "34533507-c1ed-47cc-8342-41ff0dcc418c", "OBJECTID": 96 }, "geometry": { "type": "Point", "coordinates": [ -157.989093576185013, 62.452649120364804 ] } },
{ "type": "Feature", "properties": { "NAME": "Ophir Apt", "OWNER": "DOT&PF Controlled", "ID": 97, "STATUS": "SubStandard", "REGION": "Central", "LAT_DD": 63.1460375, "LONG_DD": -156.529865, "FAA_ID": "Z17", "GlobalID": "7ba6461f-6899-4441-b958-bb0e4ff7b462", "OBJECTID": 97 }, "geometry": { "type": "Point", "coordinates": [ -156.529889232312996, 63.146037900965602 ] } },
{ "type": "Feature", "properties": { "NAME": "Takotna Apt", "OWNER": "DOT&PF Controlled", "ID": 98, "STATUS": "SubStandard", "REGION": "Central", "LAT_DD": 62.9927042, "LONG_DD": -156.0681903, "FAA_ID": "TCT", "GlobalID": "16ec587c-ebac-4e4a-8326-8e4037dfcac1", "OBJECTID": 98 }, "geometry": { "type": "Point", "coordinates": [ -156.068214439906995, 62.992704689785803 ] } },
{ "type": "Feature", "properties": { "NAME": "McGrath Apt", "OWNER": "DOT&PF Controlled", "ID": 99, "STATUS": "Standard", "REGION": "Central", "LAT_DD": 62.9527833, "LONG_DD": -155.6070444, "FAA_ID": "MCG", "GlobalID": "4985779d-68da-438c-ace1-045bf688bb68", "OBJECTID": 99 }, "geometry": { "type": "Point", "coordinates": [ -155.607068537883009, 62.952783869688503 ] } },
{ "type": "Feature", "properties": { "NAME": "Stony River No 2 Apt", "OWNER": "DOT&PF Controlled", "ID": 100, "STATUS": "SubStandard", "REGION": "Central", "LAT_DD": 61.78975, "LONG_DD": -156.5885278, "FAA_ID": "SRV", "GlobalID": "74d8c1ed-a6dc-45f8-9d26-a8fce1679ad9", "OBJECTID": 100 }, "geometry": { "type": "Point", "coordinates": [ -156.588550988316001, 61.789750505159397 ] } },
{ "type": "Feature", "properties": { "NAME": "Red Devil Apt", "OWNER": "DOT&PF Controlled", "ID": 101, "STATUS": "Standard", "REGION": "Central", "LAT_DD": 61.7880764, "LONG_DD": -157.3503092, "FAA_ID": "RDV", "GlobalID": "fa356a00-e48a-48a5-be8a-a28cf5055742", "OBJECTID": 101 }, "geometry": { "type": "Point", "coordinates": [ -157.350332332596992, 61.788076782135398 ] } },
{ "type": "Feature", "properties": { "NAME": "Sleetmute Apt", "OWNER": "DOT&PF Controlled", "ID": 102, "STATUS": "Standard", "REGION": "Central", "LAT_DD": 61.7005181, "LONG_DD": -157.1658806, "FAA_ID": "SLQ", "GlobalID": "837d7513-f8fe-435d-8ec7-4a1c7e377796", "OBJECTID": 102 }, "geometry": { "type": "Point", "coordinates": [ -157.165903683631001, 61.700518519410203 ] } },
{ "type": "Feature", "properties": { "NAME": "Lime Village Apt", "OWNER": "DOT&PF Controlled", "ID": 103, "STATUS": "SubStandard", "REGION": "Central", "LAT_DD": 61.3591306, "LONG_DD": -155.4403861, "FAA_ID": "2AK", "GlobalID": "ceda49f2-0e32-462d-a4d7-ac0925570bd1", "OBJECTID": 103 }, "geometry": { "type": "Point", "coordinates": [ -155.440409051144997, 61.3591313263804 ] } },
{ "type": "Feature", "properties": { "NAME": "Nikolai Apt", "OWNER": "DOT&PF Controlled", "ID": 104, "STATUS": "Standard", "REGION": "Central", "LAT_DD": 63.0185597, "LONG_DD": -154.3584347, "FAA_ID": "FSP", "GlobalID": "fc30cda9-dbc2-4dd3-9e90-3b2952aefaea", "OBJECTID": 104 }, "geometry": { "type": "Point", "coordinates": [ -154.358458959643997, 63.018560472477802 ] } },
{ "type": "Feature", "properties": { "NAME": "Talkeetna Apt", "OWNER": "DOT&PF Controlled", "ID": 105, "STATUS": "Standard", "REGION": "Central", "LAT_DD": 62.3205, "LONG_DD": -150.0936944, "FAA_ID": "TKA", "GlobalID": "7d397681-d79a-4225-85d1-3e19fb5c92f2", "OBJECTID": 105 }, "geometry": { "type": "Point", "coordinates": [ -150.093718250017986, 62.320501533412497 ] } },
{ "type": "Feature", "properties": { "NAME": "Skwentna Apt", "OWNER": "DOT&PF Controlled", "ID": 106, "STATUS": "Standard", "REGION": "Central", "LAT_DD": 61.965295, "LONG_DD": -151.1913661, "FAA_ID": "SKW", "GlobalID": "f038c117-749b-4b43-8a55-34bd4ecd6274", "OBJECTID": 106 }, "geometry": { "type": "Point", "coordinates": [ -151.191389660438006, 61.9652963762043 ] } },
{ "type": "Feature", "properties": { "NAME": "Willow Apt", "OWNER": "DOT&PF Controlled", "ID": 107, "STATUS": "Standard", "REGION": "Central", "LAT_DD": 61.7541889, "LONG_DD": -150.0517389, "FAA_ID": "UUO", "GlobalID": "56e40d8f-fbd1-4a42-b825-9c8cdbd7fde2", "OBJECTID": 107 }, "geometry": { "type": "Point", "coordinates": [ -150.051762325911994, 61.754190478291299 ] } },
{ "type": "Feature", "properties": { "NAME": "Big Lake Apt", "OWNER": "DOT&PF Controlled", "ID": 108, "STATUS": "SubStandard", "REGION": "Central", "LAT_DD": 61.5361222, "LONG_DD": -149.8138972, "FAA_ID": "BGQ", "GlobalID": "46256128-23d6-4638-b852-3956c5ae017f", "OBJECTID": 108 }, "geometry": { "type": "Point", "coordinates": [ -149.813920472466009, 61.536123831124797 ] } },
{ "type": "Feature", "properties": { "NAME": "Goose Bay Apt", "OWNER": "DOT&PF Controlled", "ID": 109, "STATUS": "Standard", "REGION": "Central", "LAT_DD": 61.3944514, "LONG_DD": -149.8426847, "FAA_ID": "Z40", "GlobalID": "941ea217-763c-4d2e-9f44-059e0d9a4209", "OBJECTID": 109 }, "geometry": { "type": "Point", "coordinates": [ -149.842707871313991, 61.394453036273099 ] } },
{ "type": "Feature", "properties": { "NAME": "Birchwood Apt", "OWNER": "DOT&PF Controlled", "ID": 110, "STATUS": "Standard", "REGION": "Central", "LAT_DD": 61.4160833, "LONG_DD": -149.5083056, "FAA_ID": "BCV", "GlobalID": "496a04dc-9241-4e79-8fea-e51c86305a41", "OBJECTID": 110 }, "geometry": { "type": "Point", "coordinates": [ -149.508328789131014, 61.416084988244101 ] } },
{ "type": "Feature", "properties": { "NAME": "Girdwood Apt", "OWNER": "DOT&PF Controlled", "ID": 111, "STATUS": "SubStandard", "REGION": "Central", "LAT_DD": 60.9660958, "LONG_DD": -149.1257892, "FAA_ID": "AQY", "GlobalID": "51f95ae6-2cf3-4631-aaff-8212c80eafa5", "OBJECTID": 111 }, "geometry": { "type": "Point", "coordinates": [ -149.125812075992997, 60.966097580851603 ] } },
{ "type": "Feature", "properties": { "NAME": "Kasilof Apt", "OWNER": "DOT&PF Controlled", "ID": 113, "STATUS": "SubStandard", "REGION": "Central", "LAT_DD": 60.3533092, "LONG_DD": -151.2627714, "FAA_ID": "5KS", "GlobalID": "7fc9858e-9471-476e-a726-852ff3ef4cf7", "OBJECTID": 113 }, "geometry": { "type": "Point", "coordinates": [ -151.26279383641301, 60.353310674628297 ] } },
{ "type": "Feature", "properties": { "NAME": "Seward Apt", "OWNER": "DOT&PF Controlled", "ID": 114, "STATUS": "Standard", "REGION": "Central", "LAT_DD": 60.1269383, "LONG_DD": -149.4188122, "FAA_ID": "SWD", "GlobalID": "7fe38141-ed02-4eee-a2ef-62cdddbdd1eb", "OBJECTID": 114 }, "geometry": { "type": "Point", "coordinates": [ -149.41883451618699, 60.1269400856144 ] } },
{ "type": "Feature", "properties": { "NAME": "Quartz Creek Apt", "OWNER": "DOT&PF Controlled", "ID": 115, "STATUS": "SubStandard", "REGION": "Central", "LAT_DD": 60.4827447, "LONG_DD": -149.7188022, "FAA_ID": "JLA", "GlobalID": "3118f8fa-51dd-4173-b541-52b3be1adb4b", "OBJECTID": 115 }, "geometry": { "type": "Point", "coordinates": [ -149.718824746801005, 60.482746413772098 ] } },
{ "type": "Feature", "properties": { "NAME": "Hope Apt", "OWNER": "DOT&PF Controlled", "ID": 116, "STATUS": "SubStandard", "REGION": "Central", "LAT_DD": 60.9041503, "LONG_DD": -149.6238389, "FAA_ID": "5HO", "GlobalID": "2f9e7f28-0203-4da9-8974-b3b529d96633", "OBJECTID": 116 }, "geometry": { "type": "Point", "coordinates": [ -149.62386173071701, 60.904152002224897 ] } },
{ "type": "Feature", "properties": { "NAME": "Whittier Apt", "OWNER": "DOT&PF Controlled", "ID": 117, "STATUS": "SubStandard", "REGION": "Central", "LAT_DD": 60.7771694, "LONG_DD": -148.7196528, "FAA_ID": "IEM", "GlobalID": "3ee211f8-06ad-42a7-8ac9-806268b0a287", "OBJECTID": 117 }, "geometry": { "type": "Point", "coordinates": [ -148.719675550487011, 60.777171257609901 ] } },
{ "type": "Feature", "properties": { "NAME": "Lawing Apt", "OWNER": "DOT&PF Controlled", "ID": 118, "STATUS": "SubStandard", "REGION": "Central", "LAT_DD": 60.4110964, "LONG_DD": -149.3701961, "FAA_ID": "9Z9", "GlobalID": "467f270d-204a-4311-b9cc-bce0e16bf29a", "OBJECTID": 118 }, "geometry": { "type": "Point", "coordinates": [ -149.370218602480008, 60.411098174980403 ] } },
{ "type": "Feature", "properties": { "NAME": "Chenega Bay Apt", "OWNER": "DOT&PF Controlled", "ID": 119, "STATUS": "Standard", "REGION": "Central", "LAT_DD": 60.0773056, "LONG_DD": -147.9918889, "FAA_ID": "C05", "GlobalID": "13a94c69-0e93-4228-b4c7-5a92a6fb43c2", "OBJECTID": 119 }, "geometry": { "type": "Point", "coordinates": [ -147.991911185499987, 60.077307616206099 ] } },
{ "type": "Feature", "properties": { "NAME": "Cordova Merle K \"Mudhole\" Smith Apt", "OWNER": "DOT&PF Controlled", "ID": 120, "STATUS": "Standard", "REGION": "Northern", "LAT_DD": 60.4917778, "LONG_DD": -145.4775556, "FAA_ID": "CDV", "GlobalID": "e5bcd753-153e-48d6-b55c-3d225b27e585", "OBJECTID": 120 }, "geometry": { "type": "Point", "coordinates": [ -145.477578125849988, 60.491780197961397 ] } },
{ "type": "Feature", "properties": { "NAME": "Cordova Municipal Apt", "OWNER": "DOT&PF Controlled", "ID": 121, "STATUS": "SubStandard", "REGION": "Northern", "LAT_DD": 60.5439033, "LONG_DD": -145.7267042, "FAA_ID": "CKU", "GlobalID": "ed80c38a-4edd-4e2f-b04c-cd5b68dcb740", "OBJECTID": 121 }, "geometry": { "type": "Point", "coordinates": [ -145.726726765286998, 60.543905654920898 ] } },
{ "type": "Feature", "properties": { "NAME": "Chistochina Apt", "OWNER": "DOT&PF Controlled", "ID": 122, "STATUS": "SubStandard", "REGION": "Northern", "LAT_DD": 62.5634731, "LONG_DD": -144.6688361, "FAA_ID": "CZO", "GlobalID": "f19df371-6aca-4f25-9fc2-024a9eb991ce", "OBJECTID": 122 }, "geometry": { "type": "Point", "coordinates": [ -144.668860098851013, 62.5634755244036 ] } },
{ "type": "Feature", "properties": { "NAME": "Gulkana Apt", "OWNER": "DOT&PF Controlled", "ID": 123, "STATUS": "Standard", "REGION": "Northern", "LAT_DD": 62.1549444, "LONG_DD": -145.4543333, "FAA_ID": "GKN", "GlobalID": "982ccba0-8f66-4b29-afa6-8b8bf1e1b163", "OBJECTID": 123 }, "geometry": { "type": "Point", "coordinates": [ -145.454357004685988, 62.154946715858998 ] } },
{ "type": "Feature", "properties": { "NAME": "Lake Louise Apt", "OWNER": "DOT&PF Controlled", "ID": 124, "STATUS": "SubStandard", "REGION": "Northern", "LAT_DD": 62.29368944, "LONG_DD": -146.57942194, "FAA_ID": "Z55", "GlobalID": "eb1c1750-1e2f-428e-a9f8-26e140538050", "OBJECTID": 124 }, "geometry": { "type": "Point", "coordinates": [ -146.579445775554007, 62.293691565564998 ] } },
{ "type": "Feature", "properties": { "NAME": "Tazlina Apt", "OWNER": "DOT&PF Controlled", "ID": 125, "STATUS": "SubStandard", "REGION": "Northern", "LAT_DD": 62.0647886, "LONG_DD": -146.4605219, "FAA_ID": "Z14", "GlobalID": "c4113f67-7e57-440c-80d6-c73983d88238", "OBJECTID": 125 }, "geometry": { "type": "Point", "coordinates": [ -146.460545557849997, 62.064790753559201 ] } },
{ "type": "Feature", "properties": { "NAME": "Sheep Mountain Apt", "OWNER": "DOT&PF Controlled", "ID": 126, "STATUS": "SubStandard", "REGION": "Central", "LAT_DD": 61.8119894, "LONG_DD": -147.5069219, "FAA_ID": "SMU", "GlobalID": "117f0835-e8cb-41dd-9d42-054443f73593", "OBJECTID": 126 }, "geometry": { "type": "Point", "coordinates": [ -147.506945377933988, 61.811991394607098 ] } },
{ "type": "Feature", "properties": { "NAME": "Copper Center No 2 Apt", "OWNER": "DOT&PF Controlled", "ID": 127, "STATUS": "SubStandard", "REGION": "Northern", "LAT_DD": 61.94119, "LONG_DD": -145.2940808, "FAA_ID": "Z93", "GlobalID": "b42fc092-587f-4286-a673-c6adb7056aee", "OBJECTID": 127 }, "geometry": { "type": "Point", "coordinates": [ -145.294104341485991, 61.941192353568198 ] } },
{ "type": "Feature", "properties": { "NAME": "Valdez Apt", "OWNER": "DOT&PF Controlled", "ID": 128, "STATUS": "Standard", "REGION": "Northern", "LAT_DD": 61.1342153, "LONG_DD": -146.2447619, "FAA_ID": "VDZ", "GlobalID": "01deef92-5ab9-4a5a-823e-2894f918c47f", "OBJECTID": 128 }, "geometry": { "type": "Point", "coordinates": [ -146.244784877807007, 61.134217540419101 ] } },
{ "type": "Feature", "properties": { "NAME": "Robe Lake SPB", "OWNER": "Other Government", "ID": 129, "STATUS": "Sea Plane Base", "REGION": "Northern", "LAT_DD": 61.08333333, "LONG_DD": -146.16666667000001, "FAA_ID": "L93", "GlobalID": "fe183747-4343-4ea0-b839-4e4cd795344d", "OBJECTID": 129 }, "geometry": { "type": "Point", "coordinates": [ -146.166689607264004, 61.083335589471801 ] } },
{ "type": "Feature", "properties": { "NAME": "Tatitlek Apt", "OWNER": "DOT&PF Controlled", "ID": 130, "STATUS": "Standard", "REGION": "Northern", "LAT_DD": 60.8723889, "LONG_DD": -146.6911667, "FAA_ID": "7KA", "GlobalID": "cf9995f3-b314-4e4c-a9a5-d7bf02263f78", "OBJECTID": 130 }, "geometry": { "type": "Point", "coordinates": [ -146.691189504487994, 60.872391081635499 ] } },
{ "type": "Feature", "properties": { "NAME": "Ninilchik Apt", "OWNER": "DOT&PF Controlled", "ID": 131, "STATUS": "SubStandard", "REGION": "Central", "LAT_DD": 60.0202342, "LONG_DD": -151.5894186, "FAA_ID": "NIN", "GlobalID": "033ac52d-f105-450c-aca0-7d35c2df116d", "OBJECTID": 131 }, "geometry": { "type": "Point", "coordinates": [ -151.589440813322, 60.020235645424599 ] } },
{ "type": "Feature", "properties": { "NAME": "Homer Apt", "OWNER": "DOT&PF Controlled", "ID": 132, "STATUS": "Standard", "REGION": "Central", "LAT_DD": 59.6455556, "LONG_DD": -151.4765833, "FAA_ID": "HOM", "GlobalID": "c773c42c-253f-4fa1-bb2d-04fb66aaa951", "OBJECTID": 132 }, "geometry": { "type": "Point", "coordinates": [ -151.47660527930401, 59.645557087755797 ] } },
{ "type": "Feature", "properties": { "NAME": "Homer-Beluga Lake SPB", "OWNER": "DOT&PF Controlled", "ID": 133, "STATUS": "Sea Plane Base", "REGION": "Central", "LAT_DD": 59.64466722, "LONG_DD": -151.50212583000001, "FAA_ID": "5BL", "GlobalID": "d33230da-796e-4950-b153-98d7d743b421", "OBJECTID": 133 }, "geometry": { "type": "Point", "coordinates": [ -151.502147811655988, 59.644668705875198 ] } },
{ "type": "Feature", "properties": { "NAME": "Seldovia Apt", "OWNER": "DOT&PF Controlled", "ID": 134, "STATUS": "SubStandard", "REGION": "Central", "LAT_DD": 59.4424392, "LONG_DD": -151.7040503, "FAA_ID": "SOV", "GlobalID": "8ababa99-289c-417b-93c2-656a30e50ac6", "OBJECTID": 134 }, "geometry": { "type": "Point", "coordinates": [ -151.70407214898799, 59.442440667297497 ] } },
{ "type": "Feature", "properties": { "NAME": "Nanwalek Apt", "OWNER": "DOT&PF Controlled", "ID": 135, "STATUS": "SubStandard", "REGION": "Central", "LAT_DD": 59.3521483, "LONG_DD": -151.9251558, "FAA_ID": "KEB", "GlobalID": "cf57f954-bce8-4718-8aaa-f0eb65197d64", "OBJECTID": 135 }, "geometry": { "type": "Point", "coordinates": [ -151.925177588930012, 59.3521497382756 ] } },
{ "type": "Feature", "properties": { "NAME": "Port Graham Apt", "OWNER": "DOT&PF Controlled", "ID": 136, "STATUS": "SubStandard", "REGION": "Central", "LAT_DD": 59.3482594, "LONG_DD": -151.8315389, "FAA_ID": "PGM", "GlobalID": "3a27fbff-c298-4d4b-ace4-871179a881e5", "OBJECTID": 136 }, "geometry": { "type": "Point", "coordinates": [ -151.831560689610001, 59.348260853519598 ] } },
{ "type": "Feature", "properties": { "NAME": "Lake Minchumina Apt", "OWNER": "DOT&PF Controlled", "ID": 137, "STATUS": "Standard", "REGION": "Northern", "LAT_DD": 63.8859972, "LONG_DD": -152.3018736, "FAA_ID": "MHM", "GlobalID": "0954711b-e7c4-41a2-a89f-6251eba0a620", "OBJECTID": 137 }, "geometry": { "type": "Point", "coordinates": [ -152.301898680792988, 63.885998252790699 ] } },
{ "type": "Feature", "properties": { "NAME": "Kantishna Apt", "OWNER": "DOT&PF Controlled", "ID": 138, "STATUS": "SubStandard", "REGION": "Northern", "LAT_DD": 63.5417147, "LONG_DD": -150.9939547, "FAA_ID": "5Z5", "GlobalID": "bf55ef3a-fcbd-4afc-92ff-1036e4137b10", "OBJECTID": 138 }, "geometry": { "type": "Point", "coordinates": [ -150.99397951996599, 63.541715999852698 ] } },
{ "type": "Feature", "properties": { "NAME": "Summit Apt", "OWNER": "DOT&PF Controlled", "ID": 139, "STATUS": "Standard", "REGION": "Northern", "LAT_DD": 63.3314794, "LONG_DD": -149.1272833, "FAA_ID": "UMM", "GlobalID": "cbbf178c-d427-413e-ac10-84e987d0bfc6", "OBJECTID": 139 }, "geometry": { "type": "Point", "coordinates": [ -149.127307973598988, 63.3314810288811 ] } },
{ "type": "Feature", "properties": { "NAME": "Healy River Apt", "OWNER": "DOT&PF Controlled", "ID": 140, "STATUS": "SubStandard", "REGION": "Northern", "LAT_DD": 63.8675833, "LONG_DD": -148.9688333, "FAA_ID": "HRR", "GlobalID": "f3678ee3-fbb3-4756-a383-f929ac515d4b", "OBJECTID": 140 }, "geometry": { "type": "Point", "coordinates": [ -148.968858432296997, 63.8675849224175 ] } },
{ "type": "Feature", "properties": { "NAME": "Clear Apt", "OWNER": "DOT&PF Controlled", "ID": 141, "STATUS": "Standard", "REGION": "Northern", "LAT_DD": 64.3003889, "LONG_DD": -149.1165278, "FAA_ID": "Z84", "GlobalID": "efbf9bf2-a88a-45b4-aaff-9abaf9d9fff2", "OBJECTID": 141 }, "geometry": { "type": "Point", "coordinates": [ -149.116553317394988, 64.3003904684372 ] } },
{ "type": "Feature", "properties": { "NAME": "Tanana Ralph M Calhoun Apt", "OWNER": "DOT&PF Controlled", "ID": 142, "STATUS": "Standard", "REGION": "Northern", "LAT_DD": 65.1743953, "LONG_DD": -152.1093886, "FAA_ID": "TAL", "GlobalID": "a9ae5ab9-610a-4a7c-9ae2-1d1a6eb89850", "OBJECTID": 142 }, "geometry": { "type": "Point", "coordinates": [ -152.109414876964991, 65.174396291941704 ] } },
{ "type": "Feature", "properties": { "NAME": "Manley Hot Springs Apt", "OWNER": "DOT&PF Controlled", "ID": 143, "STATUS": "SubStandard", "REGION": "Northern", "LAT_DD": 64.9975647, "LONG_DD": -150.6441297, "FAA_ID": "MLY", "GlobalID": "f0d172ad-eb49-4072-8443-6bd395e9b5f5", "OBJECTID": 143 }, "geometry": { "type": "Point", "coordinates": [ -150.644155850059008, 64.997565958647598 ] } },
{ "type": "Feature", "properties": { "NAME": "Minto Al Wright Apt", "OWNER": "DOT&PF Controlled", "ID": 144, "STATUS": "Standard", "REGION": "Northern", "LAT_DD": 65.1481694, "LONG_DD": -149.3685903, "FAA_ID": "51Z", "GlobalID": "e6872afd-02bb-4006-b033-7d1c282899f8", "OBJECTID": 144 }, "geometry": { "type": "Point", "coordinates": [ -149.368616615898986, 65.148170868517099 ] } },
{ "type": "Feature", "properties": { "NAME": "Eagle Apt", "OWNER": "DOT&PF Controlled", "ID": 146, "STATUS": "Standard", "REGION": "Northern", "LAT_DD": 64.7780833, "LONG_DD": -141.1496111, "FAA_ID": "EAA", "GlobalID": "a6de8932-d36f-4bf5-ab5d-7be9b88ca32c", "OBJECTID": 146 }, "geometry": { "type": "Point", "coordinates": [ -141.149636849067008, 64.778086212021805 ] } },
{ "type": "Feature", "properties": { "NAME": "Chicken Apt", "OWNER": "DOT&PF Controlled", "ID": 147, "STATUS": "SubStandard", "REGION": "Northern", "LAT_DD": 64.0713383, "LONG_DD": -141.9522792, "FAA_ID": "CKX", "GlobalID": "851b9430-862d-4da1-8e45-b3d850cd872b", "OBJECTID": 147 }, "geometry": { "type": "Point", "coordinates": [ -141.952304348001007, 64.071341108461198 ] } },
{ "type": "Feature", "properties": { "NAME": "Northway Apt", "OWNER": "DOT&PF Controlled", "ID": 148, "STATUS": "Standard", "REGION": "Northern", "LAT_DD": 62.9611734, "LONG_DD": -141.928078, "FAA_ID": "ORT", "GlobalID": "658840ec-18c0-487d-aa46-695c3fd65464", "OBJECTID": 148 }, "geometry": { "type": "Point", "coordinates": [ -141.928102204736007, 62.961176263052899 ] } },
{ "type": "Feature", "properties": { "NAME": "Tok Junction Apt", "OWNER": "DOT&PF Controlled", "ID": 149, "STATUS": "SubStandard", "REGION": "Northern", "LAT_DD": 63.3295144, "LONG_DD": -142.9536819, "FAA_ID": "6K8", "GlobalID": "38600035-d53a-4aae-a48e-a082f3daf7e5", "OBJECTID": 149 }, "geometry": { "type": "Point", "coordinates": [ -142.953706457225991, 63.329517073034502 ] } },
{ "type": "Feature", "properties": { "NAME": "Boundary Apt", "OWNER": "DOT&PF Controlled", "ID": 150, "STATUS": "SubStandard", "REGION": "Northern", "LAT_DD": 64.0783028, "LONG_DD": -141.113375, "FAA_ID": "BYA", "GlobalID": "78e4b0a0-7d6a-4043-9495-a9e01a25e567", "OBJECTID": 150 }, "geometry": { "type": "Point", "coordinates": [ -141.113400104502006, 64.078305751142594 ] } },
{ "type": "Feature", "properties": { "NAME": "Chisana Apt", "OWNER": "DOT&PF Controlled", "ID": 151, "STATUS": "SubStandard", "REGION": "Northern", "LAT_DD": 62.0711897, "LONG_DD": -142.0483742, "FAA_ID": "CZN", "GlobalID": "50eace54-b1af-4057-b7c3-94526667e2d2", "OBJECTID": 151 }, "geometry": { "type": "Point", "coordinates": [ -142.04839771528799, 62.071192582951902 ] } },
{ "type": "Feature", "properties": { "NAME": "Chitina Apt", "OWNER": "DOT&PF Controlled", "ID": 152, "STATUS": "SubStandard", "REGION": "Northern", "LAT_DD": 61.5828592, "LONG_DD": -144.4270969, "FAA_ID": "CXC", "GlobalID": "96afc8bd-c61f-4af4-980c-7ebc2de6c12e", "OBJECTID": 152 }, "geometry": { "type": "Point", "coordinates": [ -144.427120151509996, 61.582861714450601 ] } },
{ "type": "Feature", "properties": { "NAME": "McCarthy No 2 Apt", "OWNER": "DOT&PF Controlled", "ID": 153, "STATUS": "Standard", "REGION": "Northern", "LAT_DD": 61.4370608, "LONG_DD": -142.9037372, "FAA_ID": "15Z", "GlobalID": "3e86bfc1-5b7b-4a9c-bb53-b3dd8994c2b2", "OBJECTID": 153 }, "geometry": { "type": "Point", "coordinates": [ -142.903760291026998, 61.437063571824297 ] } },
{ "type": "Feature", "properties": { "NAME": "May Creek Apt", "OWNER": "DOT&PF Controlled", "ID": 154, "STATUS": "Standard", "REGION": "Northern", "LAT_DD": 61.3356742, "LONG_DD": -142.686775, "FAA_ID": "MYK", "GlobalID": "f44a1dd2-eb92-4f66-9bd8-64ce5f4d9831", "OBJECTID": 154 }, "geometry": { "type": "Point", "coordinates": [ -142.686798007872994, 61.335677010612798 ] } },
{ "type": "Feature", "properties": { "NAME": "Hughes Apt", "OWNER": "DOT&PF Controlled", "ID": 155, "STATUS": "Standard", "REGION": "Northern", "LAT_DD": 66.0390833, "LONG_DD": -154.2646944, "FAA_ID": "HUS", "GlobalID": "ea3fea3e-a6a9-4a66-ad05-b090654cbb2e", "OBJECTID": 155 }, "geometry": { "type": "Point", "coordinates": [ -154.264721457071005, 66.039083851740699 ] } },
{ "type": "Feature", "properties": { "NAME": "Allakaket Apt", "OWNER": "DOT&PF Controlled", "ID": 156, "STATUS": "Standard", "REGION": "Northern", "LAT_DD": 66.5518333, "LONG_DD": -152.6221667, "FAA_ID": "6A8", "GlobalID": "bcf003b0-96f7-4ae2-afab-bc9350ef4a63", "OBJECTID": 156 }, "geometry": { "type": "Point", "coordinates": [ -152.622194393754995, 66.551834099809696 ] } },
{ "type": "Feature", "properties": { "NAME": "Prospect Creek Apt", "OWNER": "DOT&PF Controlled", "ID": 158, "STATUS": "Standard", "REGION": "Northern", "LAT_DD": 66.8140556, "LONG_DD": -150.6436111, "FAA_ID": "PPC", "GlobalID": "ccf4c5fa-f981-4b9d-8196-caa60790525d", "OBJECTID": 158 }, "geometry": { "type": "Point", "coordinates": [ -150.643639154944992, 66.814056729293398 ] } },
{ "type": "Feature", "properties": { "NAME": "Coldfoot Apt", "OWNER": "DOT&PF Controlled", "ID": 159, "STATUS": "Standard", "REGION": "Northern", "LAT_DD": 67.2521789, "LONG_DD": -150.2038783, "FAA_ID": "CXF", "GlobalID": "a4aad3a2-7f08-4d75-ad1d-eed1535d5501", "OBJECTID": 159 }, "geometry": { "type": "Point", "coordinates": [ -150.203906878708011, 67.252180077971104 ] } },
{ "type": "Feature", "properties": { "NAME": "Wiseman Apt", "OWNER": "DOT&PF Controlled", "ID": 160, "STATUS": "SubStandard", "REGION": "Northern", "LAT_DD": 67.4045733, "LONG_DD": -150.1227417, "FAA_ID": "WSM", "GlobalID": "7df5b761-63ed-4e31-a243-71b0955e45c2", "OBJECTID": 160 }, "geometry": { "type": "Point", "coordinates": [ -150.122770461326013, 67.4045744811025 ] } },
{ "type": "Feature", "properties": { "NAME": "Chandalar Lake Apt", "OWNER": "DOT&PF Controlled", "ID": 161, "STATUS": "SubStandard", "REGION": "Northern", "LAT_DD": 67.5045167, "LONG_DD": -148.4832222, "FAA_ID": "WCR", "GlobalID": "f5e7b0a7-bc66-4055-8f32-4d1c69c61a07", "OBJECTID": 161 }, "geometry": { "type": "Point", "coordinates": [ -148.483251104715009, 67.504518168604307 ] } },
{ "type": "Feature", "properties": { "NAME": "Stevens Village Apt", "OWNER": "DOT&PF Controlled", "ID": 162, "STATUS": "Standard", "REGION": "Northern", "LAT_DD": 66.0170611, "LONG_DD": -149.0543694, "FAA_ID": "SVS", "GlobalID": "56e8b36d-ccca-44d8-bf20-2396a412a694", "OBJECTID": 162 }, "geometry": { "type": "Point", "coordinates": [ -149.054396607520005, 66.017062565020893 ] } },
{ "type": "Feature", "properties": { "NAME": "Rampart Apt", "OWNER": "DOT&PF Controlled", "ID": 163, "STATUS": "Standard", "REGION": "Northern", "LAT_DD": 65.5079, "LONG_DD": -150.1408333, "FAA_ID": "RMP", "GlobalID": "b5dd4599-fe96-483b-b9bc-1c8b14f58113", "OBJECTID": 163 }, "geometry": { "type": "Point", "coordinates": [ -150.140859965078988, 65.507901309647707 ] } },
{ "type": "Feature", "properties": { "NAME": "Livengood Camp Apt", "OWNER": "DOT&PF Controlled", "ID": 164, "STATUS": "SubStandard", "REGION": "Northern", "LAT_DD": 65.4726178, "LONG_DD": -148.6691711, "FAA_ID": "4AK", "GlobalID": "e293fe2d-d04a-49f5-8da9-b6d0698e0fe8", "OBJECTID": 164 }, "geometry": { "type": "Point", "coordinates": [ -148.669197744145009, 65.472619369756998 ] } },
{ "type": "Feature", "properties": { "NAME": "Beaver Apt", "OWNER": "DOT&PF Controlled", "ID": 165, "STATUS": "Standard", "REGION": "Northern", "LAT_DD": 66.3622181, "LONG_DD": -147.4065381, "FAA_ID": "WBQ", "GlobalID": "077bff7f-2289-47e4-8241-3016888c1c69", "OBJECTID": 165 }, "geometry": { "type": "Point", "coordinates": [ -147.406565680568008, 66.362219833207703 ] } },
{ "type": "Feature", "properties": { "NAME": "Birch Creek Apt", "OWNER": "DOT&PF Controlled", "ID": 166, "STATUS": "Standard", "REGION": "Northern", "LAT_DD": 66.2759278, "LONG_DD": -145.81805, "FAA_ID": "Z91", "GlobalID": "96822d71-fcda-4b19-81ca-9a7b3a05de64", "OBJECTID": 166 }, "geometry": { "type": "Point", "coordinates": [ -145.818077464887011, 66.275929819815204 ] } },
{ "type": "Feature", "properties": { "NAME": "Fort Yukon Apt", "OWNER": "DOT&PF Controlled", "ID": 167, "STATUS": "Standard", "REGION": "Northern", "LAT_DD": 66.5714903, "LONG_DD": -145.2504169, "FAA_ID": "FYU", "GlobalID": "d72160d0-8b85-423d-8878-30d01f5f2ca4", "OBJECTID": 167 }, "geometry": { "type": "Point", "coordinates": [ -145.250444677198004, 66.571492401591698 ] } },
{ "type": "Feature", "properties": { "NAME": "Chalkyitsik Apt", "OWNER": "DOT&PF Controlled", "ID": 168, "STATUS": "Standard", "REGION": "Northern", "LAT_DD": 66.6450222, "LONG_DD": -143.7399303, "FAA_ID": "CIK", "GlobalID": "e437b22d-0bf5-4a38-9e13-a74cb1b7b5a1", "OBJECTID": 168 }, "geometry": { "type": "Point", "coordinates": [ -143.739958109651013, 66.645024565313307 ] } },
{ "type": "Feature", "properties": { "NAME": "Circle City Apt", "OWNER": "DOT&PF Controlled", "ID": 169, "STATUS": "SubStandard", "REGION": "Northern", "LAT_DD": 65.8279167, "LONG_DD": -144.0761972, "FAA_ID": "CRC", "GlobalID": "fae5ac22-2ee9-461a-9eb5-5574560095e5", "OBJECTID": 169 }, "geometry": { "type": "Point", "coordinates": [ -144.076224137112007, 65.827919050547095 ] } },
{ "type": "Feature", "properties": { "NAME": "Central Apt", "OWNER": "DOT&PF Controlled", "ID": 170, "STATUS": "SubStandard", "REGION": "Northern", "LAT_DD": 65.5739444, "LONG_DD": -144.7808889, "FAA_ID": "CEM", "GlobalID": "1223096d-55f4-4f54-8d3e-38220fbc8908", "OBJECTID": 170 }, "geometry": { "type": "Point", "coordinates": [ -144.780915598433012, 65.573946641499802 ] } },
{ "type": "Feature", "properties": { "NAME": "Circle Hot Springs Apt", "OWNER": "DOT&PF Controlled", "ID": 171, "STATUS": "Standard", "REGION": "Northern", "LAT_DD": 65.4854722, "LONG_DD": -144.6107836, "FAA_ID": "CHP", "GlobalID": "baadbd98-6481-4e7e-91a3-4ff623708cbc", "OBJECTID": 171 }, "geometry": { "type": "Point", "coordinates": [ -144.610810203719012, 65.485474476575902 ] } },
{ "type": "Feature", "properties": { "NAME": "Shishmaref Apt", "OWNER": "DOT&PF Controlled", "ID": 172, "STATUS": "Standard", "REGION": "Northern", "LAT_DD": 66.2495667, "LONG_DD": -166.0893458, "FAA_ID": "SHH", "GlobalID": "7c3ba67e-60cb-4663-b500-40bfc1d445e0", "OBJECTID": 172 }, "geometry": { "type": "Point", "coordinates": [ -166.089371754919, 66.249565211139497 ] } },
{ "type": "Feature", "properties": { "NAME": "Brevig Mission Apt", "OWNER": "DOT&PF Controlled", "ID": 173, "STATUS": "Standard", "REGION": "Northern", "LAT_DD": 65.3313333, "LONG_DD": -166.4657222, "FAA_ID": "KTS", "GlobalID": "21d6a372-54e0-4d8b-a903-be62207d8131", "OBJECTID": 173 }, "geometry": { "type": "Point", "coordinates": [ -166.465747193217993, 65.331331846699598 ] } },
{ "type": "Feature", "properties": { "NAME": "Teller Apt", "OWNER": "DOT&PF Controlled", "ID": 174, "STATUS": "Standard", "REGION": "Northern", "LAT_DD": 65.2403794, "LONG_DD": -166.3393397, "FAA_ID": "TER", "GlobalID": "34046332-fdf2-452e-89e3-0812214d741d", "OBJECTID": 174 }, "geometry": { "type": "Point", "coordinates": [ -166.339364629402013, 65.240377977634395 ] } },
{ "type": "Feature", "properties": { "NAME": "Quartz Creek-Kougarok Apt", "OWNER": "DOT&PF Controlled", "ID": 175, "STATUS": "SubStandard", "REGION": "Northern", "LAT_DD": 65.4059331, "LONG_DD": -164.6557247, "FAA_ID": "5QC", "GlobalID": "f5f3162a-c913-4da9-bac8-d915ce953f40", "OBJECTID": 175 }, "geometry": { "type": "Point", "coordinates": [ -164.655750045438992, 65.405931936414603 ] } },
{ "type": "Feature", "properties": { "NAME": "Salmon Lake Apt", "OWNER": "DOT&PF Controlled", "ID": 176, "STATUS": "SubStandard", "REGION": "Northern", "LAT_DD": 64.9092478, "LONG_DD": -165.0126275, "FAA_ID": "Z81", "GlobalID": "7495df5b-bd8c-485b-aa44-81f712696a0a", "OBJECTID": 176 }, "geometry": { "type": "Point", "coordinates": [ -165.012652329453005, 64.909246629319398 ] } },
{ "type": "Feature", "properties": { "NAME": "Engstrom Field", "OWNER": "Other Government", "ID": 177, "STATUS": "SubStandard", "REGION": "Northern", "LAT_DD": 64.6797947, "LONG_DD": -165.2998369, "FAA_ID": "Z47", "GlobalID": "d33d1356-69c5-4cad-8085-d69ac7384423", "OBJECTID": 177 }, "geometry": { "type": "Point", "coordinates": [ -165.299861476511012, 64.679793506361804 ] } },
{ "type": "Feature", "properties": { "NAME": "Nome Apt", "OWNER": "DOT&PF Controlled", "ID": 178, "STATUS": "Standard", "REGION": "Northern", "LAT_DD": 64.5122022, "LONG_DD": -165.4452458, "FAA_ID": "OME", "GlobalID": "a5452ce0-2e83-4014-8945-c8998a12ce71", "OBJECTID": 178 }, "geometry": { "type": "Point", "coordinates": [ -165.445270209524011, 64.512201000659303 ] } },
{ "type": "Feature", "properties": { "NAME": "Council No 1 Apt", "OWNER": "DOT&PF Controlled", "ID": 179, "STATUS": "Standard", "REGION": "Northern", "LAT_DD": 64.8978828, "LONG_DD": -163.7034472, "FAA_ID": "K29", "GlobalID": "fff3b859-5ebd-4def-a0a5-c37d3cc35e20", "OBJECTID": 179 }, "geometry": { "type": "Point", "coordinates": [ -163.703472207203987, 64.897881847483902 ] } },
{ "type": "Feature", "properties": { "NAME": "White Mountain Apt", "OWNER": "DOT&PF Controlled", "ID": 180, "STATUS": "Standard", "REGION": "Northern", "LAT_DD": 64.6891944, "LONG_DD": -163.41275, "FAA_ID": "WMO", "GlobalID": "e7790e4b-94a3-44ac-9344-6e1815a06443", "OBJECTID": 180 }, "geometry": { "type": "Point", "coordinates": [ -163.412774856210007, 64.689193515566402 ] } },
{ "type": "Feature", "properties": { "NAME": "New Golovin Apt", "OWNER": "DOT&PF Controlled", "ID": 181, "STATUS": "Standard", "REGION": "Northern", "LAT_DD": 64.5504553, "LONG_DD": -163.0071703, "FAA_ID": "GLV", "GlobalID": "1bd46c06-21ca-48d6-8d1f-9dc13c71e106", "OBJECTID": 181 }, "geometry": { "type": "Point", "coordinates": [ -163.007195084246007, 64.550454496347797 ] } },
{ "type": "Feature", "properties": { "NAME": "Elim Apt", "OWNER": "DOT&PF Controlled", "ID": 182, "STATUS": "Standard", "REGION": "Northern", "LAT_DD": 64.6149722, "LONG_DD": -162.2705278, "FAA_ID": "ELI", "GlobalID": "cf19bc70-3db7-49de-aee3-4a1db2e9d939", "OBJECTID": 182 }, "geometry": { "type": "Point", "coordinates": [ -162.270552734717, 64.614971513620105 ] } },
{ "type": "Feature", "properties": { "NAME": "Koyuk Apt", "OWNER": "DOT&PF Controlled", "ID": 183, "STATUS": "Standard", "REGION": "Northern", "LAT_DD": 64.9394894, "LONG_DD": -161.1542656, "FAA_ID": "KKA", "GlobalID": "b8c0a61f-7e20-4625-99c3-09a4401985ec", "OBJECTID": 183 }, "geometry": { "type": "Point", "coordinates": [ -161.154290967486986, 64.939488867222295 ] } },
{ "type": "Feature", "properties": { "NAME": "Deering Apt", "OWNER": "DOT&PF Controlled", "ID": 184, "STATUS": "Standard", "REGION": "Northern", "LAT_DD": 66.0695611, "LONG_DD": -162.7663675, "FAA_ID": "DEE", "GlobalID": "25640aed-c701-4a6b-a550-5cb10396e692", "OBJECTID": 184 }, "geometry": { "type": "Point", "coordinates": [ -162.766393771742003, 66.069560185963098 ] } },
{ "type": "Feature", "properties": { "NAME": "Buckland Apt", "OWNER": "DOT&PF Controlled", "ID": 185, "STATUS": "Standard", "REGION": "Northern", "LAT_DD": 65.9815653, "LONG_DD": -161.1490708, "FAA_ID": "BVK", "GlobalID": "1452c1a4-4a84-4dc0-9204-926e8ddd4f43", "OBJECTID": 185 }, "geometry": { "type": "Point", "coordinates": [ -161.149097186485989, 65.981564668705005 ] } },
{ "type": "Feature", "properties": { "NAME": "Selawik Apt", "OWNER": "DOT&PF Controlled", "ID": 186, "STATUS": "Standard", "REGION": "Northern", "LAT_DD": 66.6001389, "LONG_DD": -159.98575, "FAA_ID": "WLK", "GlobalID": "eaa132a3-921c-49bf-bad9-5d7598002d28", "OBJECTID": 186 }, "geometry": { "type": "Point", "coordinates": [ -159.985777175523992, 66.600138410768196 ] } },
{ "type": "Feature", "properties": { "NAME": "Huslia Apt", "OWNER": "DOT&PF Controlled", "ID": 187, "STATUS": "Standard", "REGION": "Northern", "LAT_DD": 65.6978611, "LONG_DD": -156.3513889, "FAA_ID": "HLA", "GlobalID": "91189289-6073-427a-ae8f-a88a4fcef224", "OBJECTID": 187 }, "geometry": { "type": "Point", "coordinates": [ -156.351415465666008, 65.697861316498305 ] } },
{ "type": "Feature", "properties": { "NAME": "Ruby Apt", "OWNER": "DOT&PF Controlled", "ID": 188, "STATUS": "Standard", "REGION": "Northern", "LAT_DD": 64.7272222, "LONG_DD": -155.4698889, "FAA_ID": "RBY", "GlobalID": "32845aed-ea37-4f93-a18a-313d28939218", "OBJECTID": 188 }, "geometry": { "type": "Point", "coordinates": [ -155.469914580834001, 64.7272226483433 ] } },
{ "type": "Feature", "properties": { "NAME": "Galena Apt", "OWNER": "DOT&PF Controlled", "ID": 189, "STATUS": "Standard", "REGION": "Northern", "LAT_DD": 64.7361667, "LONG_DD": -156.9373889, "FAA_ID": "GAL", "GlobalID": "5491bd11-c7fa-4271-b839-158594b8d6d3", "OBJECTID": 189 }, "geometry": { "type": "Point", "coordinates": [ -156.937414484443991, 64.736166897872806 ] } },
{ "type": "Feature", "properties": { "NAME": "Koyukuk Apt", "OWNER": "DOT&PF Controlled", "ID": 190, "STATUS": "Standard", "REGION": "Northern", "LAT_DD": 64.8758056, "LONG_DD": -157.7304444, "FAA_ID": "KYU", "GlobalID": "682a7664-b51c-4317-8c25-b9cc05d945b9", "OBJECTID": 190 }, "geometry": { "type": "Point", "coordinates": [ -157.730470051568005, 64.875805651332996 ] } },
{ "type": "Feature", "properties": { "NAME": "Nulato Apt", "OWNER": "DOT&PF Controlled", "ID": 191, "STATUS": "Standard", "REGION": "Northern", "LAT_DD": 64.7293108, "LONG_DD": -158.0742219, "FAA_ID": "NUL", "GlobalID": "c2f9da2d-0d7b-4ee3-9af7-2a8547b237d2", "OBJECTID": 191 }, "geometry": { "type": "Point", "coordinates": [ -158.074247384321012, 64.729310806518299 ] } },
{ "type": "Feature", "properties": { "NAME": "Gambell Apt", "OWNER": "DOT&PF Controlled", "ID": 192, "STATUS": "Standard", "REGION": "Northern", "LAT_DD": 63.7667656, "LONG_DD": -171.7328236, "FAA_ID": "GAM", "GlobalID": "118ef909-cec9-4969-9bb5-7cd95c253df2", "OBJECTID": 192 }, "geometry": { "type": "Point", "coordinates": [ -171.732846295629997, 63.766763488547099 ] } },
{ "type": "Feature", "properties": { "NAME": "Savoonga Apt", "OWNER": "DOT&PF Controlled", "ID": 193, "STATUS": "Standard", "REGION": "Northern", "LAT_DD": 63.6862667, "LONG_DD": -170.4931639, "FAA_ID": "SVA", "GlobalID": "ed610728-9b3c-46ef-8bc7-a3163000537e", "OBJECTID": 193 }, "geometry": { "type": "Point", "coordinates": [ -170.493186770444993, 63.686264789895702 ] } },
{ "type": "Feature", "properties": { "NAME": "Little Diomede Heliport", "OWNER": "DOT&PF Controlled", "ID": 194, "STATUS": "Standard", "REGION": "Northern", "LAT_DD": 65.75866667, "LONG_DD": -168.953, "FAA_ID": "DM2", "GlobalID": "05f08f01-75d5-40e5-948c-a04deced9e9f", "OBJECTID": 194 }, "geometry": { "type": "Point", "coordinates": [ -168.953024962741011, 65.7586647614188 ] } },
{ "type": "Feature", "properties": { "NAME": "Wales Apt", "OWNER": "DOT&PF Controlled", "ID": 195, "STATUS": "Standard", "REGION": "Northern", "LAT_DD": 65.6225847, "LONG_DD": -168.0949389, "FAA_ID": "IWK", "GlobalID": "60f0d782-e72f-4908-85fe-951975e1c1af", "OBJECTID": 195 }, "geometry": { "type": "Point", "coordinates": [ -168.094963889930995, 65.622582948798694 ] } },
{ "type": "Feature", "properties": { "NAME": "Kotzebue Ralph Wien Memorial Apt", "OWNER": "DOT&PF Controlled", "ID": 196, "STATUS": "Standard", "REGION": "Northern", "LAT_DD": 66.88806045, "LONG_DD": -162.59327529000001, "FAA_ID": "OTZ", "GlobalID": "f63b4668-29b4-40b6-8897-e98fec6349f3", "OBJECTID": 196 }, "geometry": { "type": "Point", "coordinates": [ -162.593302452314987, 66.888059484738505 ] } },
{ "type": "Feature", "properties": { "NAME": "Noorvik Robert (Bob) Curtis Memorial Apt", "OWNER": "DOT&PF Controlled", "ID": 197, "STATUS": "Standard", "REGION": "Northern", "LAT_DD": 66.8175278, "LONG_DD": -161.02225, "FAA_ID": "D76", "GlobalID": "a881e478-608f-4586-bbcc-7b72e0233ec7", "OBJECTID": 197 }, "geometry": { "type": "Point", "coordinates": [ -161.022277292681991, 66.817527110721898 ] } },
{ "type": "Feature", "properties": { "NAME": "Kiana Bob Baker Memorial Apt", "OWNER": "DOT&PF Controlled", "ID": 198, "STATUS": "Standard", "REGION": "Northern", "LAT_DD": 66.9759539, "LONG_DD": -160.4365344, "FAA_ID": "IAN", "GlobalID": "2e2fb530-0e19-4f3f-9f91-d7fefaed2d21", "OBJECTID": 198 }, "geometry": { "type": "Point", "coordinates": [ -160.436561938873012, 66.975953296137604 ] } },
{ "type": "Feature", "properties": { "NAME": "Point Hope Apt", "OWNER": "DOT&PF Controlled", "ID": 199, "STATUS": "Standard", "REGION": "Northern", "LAT_DD": 68.3488347, "LONG_DD": -166.79935, "FAA_ID": "PHO", "GlobalID": "a2e99bef-2721-4ed5-92d0-aa136d3e0abb", "OBJECTID": 199 }, "geometry": { "type": "Point", "coordinates": [ -166.799378202795992, 68.348832865906701 ] } },
{ "type": "Feature", "properties": { "NAME": "Kivalina Apt", "OWNER": "DOT&PF Controlled", "ID": 200, "STATUS": "SubStandard", "REGION": "Northern", "LAT_DD": 67.7361514, "LONG_DD": -164.5634961, "FAA_ID": "KVL", "GlobalID": "9405444e-dcf3-426f-8c57-7fbc14296799", "OBJECTID": 200 }, "geometry": { "type": "Point", "coordinates": [ -164.563523943124011, 67.736150012014093 ] } },
{ "type": "Feature", "properties": { "NAME": "Noatak Apt", "OWNER": "DOT&PF Controlled", "ID": 201, "STATUS": "Standard", "REGION": "Northern", "LAT_DD": 67.5610722, "LONG_DD": -162.9803528, "FAA_ID": "WTK", "GlobalID": "65c81404-479d-4f54-82e6-8bb2e1bccc37", "OBJECTID": 201 }, "geometry": { "type": "Point", "coordinates": [ -162.980380680525002, 67.561071101169603 ] } },
{ "type": "Feature", "properties": { "NAME": "Ambler Apt", "OWNER": "DOT&PF Controlled", "ID": 202, "STATUS": "SubStandard", "REGION": "Northern", "LAT_DD": 67.1063139, "LONG_DD": -157.8574722, "FAA_ID": "AFM", "GlobalID": "e5ad1d08-5191-4caf-9aca-6836614a4a57", "OBJECTID": 202 }, "geometry": { "type": "Point", "coordinates": [ -157.857500164107989, 67.106313734659693 ] } },
{ "type": "Feature", "properties": { "NAME": "Dahl Creek Apt", "OWNER": "DOT&PF Controlled", "ID": 203, "STATUS": "Standard", "REGION": "Northern", "LAT_DD": 66.9433381, "LONG_DD": -156.9046739, "FAA_ID": "DCK", "GlobalID": "55549f0f-3513-4f66-af21-0292052e2186", "OBJECTID": 203 }, "geometry": { "type": "Point", "coordinates": [ -156.904701759271006, 66.943338115403094 ] } },
{ "type": "Feature", "properties": { "NAME": "Kobuk Apt", "OWNER": "DOT&PF Controlled", "ID": 204, "STATUS": "SubStandard", "REGION": "Northern", "LAT_DD": 66.9123417, "LONG_DD": -156.8973306, "FAA_ID": "OBU", "GlobalID": "750bfc02-834f-4515-b668-de7209f58e5a", "OBJECTID": 204 }, "geometry": { "type": "Point", "coordinates": [ -156.897358426913001, 66.9123417195608 ] } },
{ "type": "Feature", "properties": { "NAME": "Shungnak Apt", "OWNER": "DOT&PF Controlled", "ID": 205, "STATUS": "Standard", "REGION": "Northern", "LAT_DD": 66.8880767, "LONG_DD": -157.1624014, "FAA_ID": "SHG", "GlobalID": "39715bc9-0d1a-47c2-9359-6284c5cefba0", "OBJECTID": 205 }, "geometry": { "type": "Point", "coordinates": [ -157.162429176245013, 66.888076674167493 ] } },
{ "type": "Feature", "properties": { "NAME": "Umiat Apt", "OWNER": "DOT&PF Controlled", "ID": 206, "STATUS": "Standard", "REGION": "Northern", "LAT_DD": 69.3711127, "LONG_DD": -152.1349827, "FAA_ID": "UMT", "GlobalID": "9d1b6c74-ff98-4e37-a24f-8ab0a05c268c", "OBJECTID": 206 }, "geometry": { "type": "Point", "coordinates": [ -152.135014015342989, 69.371113373729898 ] } },
{ "type": "Feature", "properties": { "NAME": "Galbraith Lake Apt", "OWNER": "DOT&PF Controlled", "ID": 207, "STATUS": "Standard", "REGION": "Northern", "LAT_DD": 68.4796667, "LONG_DD": -149.4899167, "FAA_ID": "GBH", "GlobalID": "d207eccf-292a-4c78-86cd-f0686af6c7ba", "OBJECTID": 207 }, "geometry": { "type": "Point", "coordinates": [ -149.489946844533989, 68.479667918778702 ] } },
{ "type": "Feature", "properties": { "NAME": "Chandalar Shelf Apt", "OWNER": "DOT&PF Controlled", "ID": 208, "STATUS": "SubStandard", "REGION": "Northern", "LAT_DD": 68.0654394, "LONG_DD": -149.5797392, "FAA_ID": "5CD", "GlobalID": "7ae6a563-1f14-4e13-9a8f-97d623b5ee5d", "OBJECTID": 208 }, "geometry": { "type": "Point", "coordinates": [ -149.579768797245009, 68.065440632231699 ] } },
{ "type": "Feature", "properties": { "NAME": "Barrow Wiley Post-Will Rogers Apt", "OWNER": "DOT&PF Controlled", "ID": 209, "STATUS": "Standard", "REGION": "Northern", "LAT_DD": 71.2848889, "LONG_DD": -156.7685833, "FAA_ID": "BRW", "GlobalID": "a59d98e4-1425-448a-a3ca-5ad57877657b", "OBJECTID": 209 }, "geometry": { "type": "Point", "coordinates": [ -156.768617384162013, 71.284888569444206 ] } },
{ "type": "Feature", "properties": { "NAME": "Deadhorse Apt", "OWNER": "DOT&PF Controlled", "ID": 210, "STATUS": "Standard", "REGION": "Northern", "LAT_DD": 70.19475, "LONG_DD": -148.4651667, "FAA_ID": "SCC", "GlobalID": "ddb3d69b-beab-41d6-88ce-425b932d5531", "OBJECTID": 210 }, "geometry": { "type": "Point", "coordinates": [ -148.465199378000989, 70.194751287839395 ] } },
{ "type": "Feature", "properties": { "NAME": "Yakutat Apt", "OWNER": "DOT&PF Controlled", "ID": 211, "STATUS": "Standard", "REGION": "Southcoast", "LAT_DD": 59.5033056, "LONG_DD": -139.66025, "FAA_ID": "YAK", "GlobalID": "658bb33a-b06a-4aa0-a31c-cfbc2ba0400e", "OBJECTID": 211 }, "geometry": { "type": "Point", "coordinates": [ -139.660271633346014, 59.503308970056601 ] } },
{ "type": "Feature", "properties": { "NAME": "Skagway Apt", "OWNER": "DOT&PF Controlled", "ID": 212, "STATUS": "Standard", "REGION": "Southcoast", "LAT_DD": 59.46027003, "LONG_DD": -135.31664206, "FAA_ID": "SGY", "GlobalID": "35103cd5-f08e-435d-bff6-be553da5d609", "OBJECTID": 212 }, "geometry": { "type": "Point", "coordinates": [ -135.316663305953995, 59.460274078152999 ] } },
{ "type": "Feature", "properties": { "NAME": "Harris Harbor SPB", "OWNER": "Other Government", "ID": 214, "STATUS": "Sea Plane Base", "REGION": "Southcoast", "LAT_DD": 58.30047285, "LONG_DD": -134.42774725000001, "FAA_ID": "5Z1", "GlobalID": "dfb430c6-3edb-4516-8538-e2715e7f242c", "OBJECTID": 213 }, "geometry": { "type": "Point", "coordinates": [ -134.427767740370001, 58.300477055156698 ] } },
{ "type": "Feature", "properties": { "NAME": "Funter Bay SPB", "OWNER": "DOT&PF Controlled", "ID": 215, "STATUS": "Sea Plane Base", "REGION": "Southcoast", "LAT_DD": 58.25438583, "LONG_DD": -134.89790667, "FAA_ID": "FNR", "GlobalID": "4e289df4-92e3-41b3-b590-882bc47a5065", "OBJECTID": 214 }, "geometry": { "type": "Point", "coordinates": [ -134.897927179096001, 58.254389972469298 ] } },
{ "type": "Feature", "properties": { "NAME": "Excursion Inlet SPB", "OWNER": "DOT&PF Controlled", "ID": 216, "STATUS": "Sea Plane Base", "REGION": "Southcoast", "LAT_DD": 58.42049861, "LONG_DD": -135.44903278000001, "FAA_ID": "EXI", "GlobalID": "d127df28-03dc-4611-8013-d2614fcb2c82", "OBJECTID": 215 }, "geometry": { "type": "Point", "coordinates": [ -135.449053435894001, 58.420502664011202 ] } },
{ "type": "Feature", "properties": { "NAME": "Gustavus Apt", "OWNER": "DOT&PF Controlled", "ID": 217, "STATUS": "Standard", "REGION": "Southcoast", "LAT_DD": 58.4252778, "LONG_DD": -135.7074167, "FAA_ID": "GST", "GlobalID": "60d9b033-e7c1-41d3-844a-128271b6c68c", "OBJECTID": 216 }, "geometry": { "type": "Point", "coordinates": [ -135.707437384631987, 58.4252818120939 ] } },
{ "type": "Feature", "properties": { "NAME": "Elfin Cove SPB", "OWNER": "DOT&PF Controlled", "ID": 218, "STATUS": "Sea Plane Base", "REGION": "Southcoast", "LAT_DD": 58.19518417, "LONG_DD": -136.34739278000001, "FAA_ID": "ELV", "GlobalID": "ca9658ea-5610-489f-8a52-444b24e4e257", "OBJECTID": 217 }, "geometry": { "type": "Point", "coordinates": [ -136.347413395557993, 58.195188086644897 ] } },
{ "type": "Feature", "properties": { "NAME": "Tenakee SPB", "OWNER": "DOT&PF Controlled", "ID": 219, "STATUS": "Sea Plane Base", "REGION": "Southcoast", "LAT_DD": 57.77965833, "LONG_DD": -135.21844389, "FAA_ID": "TKE", "GlobalID": "e0ad91d0-823a-49e4-9814-5cff3a982258", "OBJECTID": 218 }, "geometry": { "type": "Point", "coordinates": [ -135.218464177028011, 57.779662431261102 ] } },
{ "type": "Feature", "properties": { "NAME": "Hoonah SPB", "OWNER": "DOT&PF Controlled", "ID": 220, "STATUS": "Sea Plane Base", "REGION": "Southcoast", "LAT_DD": 58.1125138, "LONG_DD": -135.44934069000001, "FAA_ID": "OOH", "GlobalID": "9ac19958-dcb3-4001-8d0c-1cd8e3289972", "OBJECTID": 219 }, "geometry": { "type": "Point", "coordinates": [ -135.449361177639986, 58.112517860524903 ] } },
{ "type": "Feature", "properties": { "NAME": "Sitka Apt", "OWNER": "DOT&PF Controlled", "ID": 221, "STATUS": "Standard", "REGION": "Southcoast", "LAT_DD": 57.0471389, "LONG_DD": -135.3616111, "FAA_ID": "SIT", "GlobalID": "f3555a2a-5c00-46e5-bdba-c4a98471db3f", "OBJECTID": 220 }, "geometry": { "type": "Point", "coordinates": [ -135.361631025770009, 57.047142988340902 ] } },
{ "type": "Feature", "properties": { "NAME": "Baranof Warm Springs Bay SPB", "OWNER": "Other Government", "ID": 222, "STATUS": "Sea Plane Base", "REGION": "Southcoast", "LAT_DD": 57.08882583, "LONG_DD": -134.83314139000001, "FAA_ID": "BNF", "GlobalID": "13c92f31-0947-4eab-9230-3d2b78934dcb", "OBJECTID": 221 }, "geometry": { "type": "Point", "coordinates": [ -134.833161281569005, 57.088830000040602 ] } },
{ "type": "Feature", "properties": { "NAME": "Angoon SPB", "OWNER": "DOT&PF Controlled", "ID": 223, "STATUS": "Sea Plane Base", "REGION": "Southcoast", "LAT_DD": 57.49666242, "LONG_DD": -134.56857046, "FAA_ID": "AGN", "GlobalID": "f1d63002-6d6e-44fd-8e49-370d7023a026", "OBJECTID": 222 }, "geometry": { "type": "Point", "coordinates": [ -134.568590536610998, 57.496666621830997 ] } },
{ "type": "Feature", "properties": { "NAME": "Petersburg James A Johnson Apt", "OWNER": "DOT&PF Controlled", "ID": 226, "STATUS": "Standard", "REGION": "Southcoast", "LAT_DD": 56.8016667, "LONG_DD": -132.9452778, "FAA_ID": "PSG", "GlobalID": "2b3f6d7b-4274-4695-90e0-10b687de5051", "OBJECTID": 223 }, "geometry": { "type": "Point", "coordinates": [ -132.945297352522005, 56.801671149173004 ] } },
{ "type": "Feature", "properties": { "NAME": "Port Alexander SPB", "OWNER": "Other Government", "ID": 227, "STATUS": "Sea Plane Base", "REGION": "Southcoast", "LAT_DD": 56.24684222, "LONG_DD": -134.64815389, "FAA_ID": "AHP", "GlobalID": "a6366636-59cb-497e-9b00-658223295c45", "OBJECTID": 224 }, "geometry": { "type": "Point", "coordinates": [ -134.64817335533499, 56.246846426538603 ] } },
{ "type": "Feature", "properties": { "NAME": "Point Baker SPB", "OWNER": "DOT&PF Controlled", "ID": 228, "STATUS": "Sea Plane Base", "REGION": "Southcoast", "LAT_DD": 56.35185972, "LONG_DD": -133.62258639000001, "FAA_ID": "KPB", "GlobalID": "d3c6459d-c9d1-48c2-89de-b26bd6095ff1", "OBJECTID": 225 }, "geometry": { "type": "Point", "coordinates": [ -133.622605800493005, 56.351864075281902 ] } },
{ "type": "Feature", "properties": { "NAME": "Port Protection SPB", "OWNER": "DOT&PF Controlled", "ID": 229, "STATUS": "Sea Plane Base", "REGION": "Southcoast", "LAT_DD": 56.3222302, "LONG_DD": -133.61024318, "FAA_ID": "19P", "GlobalID": "36c6e62c-d6d3-4461-a8fa-874cb0893aed", "OBJECTID": 226 }, "geometry": { "type": "Point", "coordinates": [ -133.610262578943008, 56.322234553603401 ] } },
{ "type": "Feature", "properties": { "NAME": "Wrangell Apt", "OWNER": "DOT&PF Controlled", "ID": 230, "STATUS": "Standard", "REGION": "Southcoast", "LAT_DD": 56.4843333, "LONG_DD": -132.3698333, "FAA_ID": "WRG", "GlobalID": "d1416ea2-1f62-440f-9276-287096beb65f", "OBJECTID": 227 }, "geometry": { "type": "Point", "coordinates": [ -132.36985263683701, 56.484337835766603 ] } },
{ "type": "Feature", "properties": { "NAME": "Whale Pass SPB", "OWNER": "Other Government", "ID": 231, "STATUS": "Sea Plane Base", "REGION": "Southcoast", "LAT_DD": 56.11666667, "LONG_DD": -133.13333333, "FAA_ID": "96Z", "GlobalID": "1bf15e49-5c54-45f7-83e5-050ab708d8d6", "OBJECTID": 228 }, "geometry": { "type": "Point", "coordinates": [ -133.133352582170005, 56.116671092811998 ] } },
{ "type": "Feature", "properties": { "NAME": "Thorne Bay SPB", "OWNER": "Other Government", "ID": 233, "STATUS": "Sea Plane Base", "REGION": "Southcoast", "LAT_DD": 55.684, "LONG_DD": -132.5248, "FAA_ID": "KTB", "GlobalID": "10774633-1e2c-4c59-be74-f474b1139f11", "OBJECTID": 229 }, "geometry": { "type": "Point", "coordinates": [ -132.52481898416201, 55.684004515465197 ] } },
{ "type": "Feature", "properties": { "NAME": "Meyers Chuck SPB", "OWNER": "Other Government", "ID": 234, "STATUS": "Sea Plane Base", "REGION": "Southcoast", "LAT_DD": 55.73963611, "LONG_DD": -132.25501833000001, "FAA_ID": "84K", "GlobalID": "6f869e81-bd13-4523-a8df-777b1e9256ec", "OBJECTID": 230 }, "geometry": { "type": "Point", "coordinates": [ -132.255037311368, 55.739640664589899 ] } },
{ "type": "Feature", "properties": { "NAME": "Ketchikan Peninsula Point SPB", "OWNER": "DOT&PF Controlled", "ID": 237, "STATUS": "Sea Plane Base", "REGION": "Southcoast", "LAT_DD": 55.38465056, "LONG_DD": -131.73835222, "FAA_ID": "9C0", "GlobalID": "7b60ee18-e7c9-4825-93e2-3ebc380245dc", "OBJECTID": 231 }, "geometry": { "type": "Point", "coordinates": [ -131.738370982752002, 55.384655184337603 ] } },
{ "type": "Feature", "properties": { "NAME": "Ketchikan International Airport", "OWNER": "DOT&PF Controlled", "ID": 238, "STATUS": "Standard", "REGION": "Southcoast", "LAT_DD": 55.354075, "LONG_DD": -131.7112194, "FAA_ID": "KTN", "GlobalID": "142bc317-32ef-460a-b468-dab2c7cb3f4a", "OBJECTID": 232 }, "geometry": { "type": "Point", "coordinates": [ -131.711238143190002, 55.354079632856603 ] } },
{ "type": "Feature", "properties": { "NAME": "Klawock Apt", "OWNER": "DOT&PF Controlled", "ID": 240, "STATUS": "Standard", "REGION": "Southcoast", "LAT_DD": 55.5792333, "LONG_DD": -133.0759972, "FAA_ID": "AKW", "GlobalID": "dcfd6872-7025-42ba-b269-7240d5f11555", "OBJECTID": 233 }, "geometry": { "type": "Point", "coordinates": [ -133.076016198800005, 55.579237738452697 ] } },
{ "type": "Feature", "properties": { "NAME": "Craig SPB", "OWNER": "Other Government", "ID": 241, "STATUS": "Sea Plane Base", "REGION": "Southcoast", "LAT_DD": 55.47883139, "LONG_DD": -133.14780111, "FAA_ID": "CGA", "GlobalID": "4db21f4b-9b4e-4264-a63f-604036c40143", "OBJECTID": 234 }, "geometry": { "type": "Point", "coordinates": [ -133.147820073881007, 55.478835817411401 ] } },
{ "type": "Feature", "properties": { "NAME": "Kasaan SPB", "OWNER": "DOT&PF Controlled", "ID": 243, "STATUS": "Sea Plane Base", "REGION": "Southcoast", "LAT_DD": 55.53741389, "LONG_DD": -132.39751444000001, "FAA_ID": "KXA", "GlobalID": "a9ed1c40-1787-40a1-b532-a014fe515d66", "OBJECTID": 235 }, "geometry": { "type": "Point", "coordinates": [ -132.397533348955989, 55.537418422948903 ] } },
{ "type": "Feature", "properties": { "NAME": "Hydaburg SPB", "OWNER": "DOT&PF Controlled", "ID": 244, "STATUS": "Sea Plane Base", "REGION": "Southcoast", "LAT_DD": 55.20249884, "LONG_DD": -132.82535857, "FAA_ID": "HYG", "GlobalID": "e9662a2d-132c-4a13-875b-c70a30780943", "OBJECTID": 236 }, "geometry": { "type": "Point", "coordinates": [ -132.825377373950005, 55.202503313352899 ] } },
{ "type": "Feature", "properties": { "NAME": "Wasilla Apt", "OWNER": "Other Government", "ID": 247, "STATUS": "Other", "REGION": "Central", "LAT_DD": 61.5719861, "LONG_DD": -149.5395526, "FAA_ID": "IYS", "GlobalID": "8833bcf6-d0f6-42c1-963e-f8463a2b887f", "OBJECTID": 239 }, "geometry": { "type": "Point", "coordinates": [ -149.53957590084201, 61.5719877735457 ] } },
{ "type": "Feature", "properties": { "NAME": "Palmer Municipal Apt", "OWNER": "Other Government", "ID": 248, "STATUS": "Other", "REGION": "Central", "LAT_DD": 61.5949136, "LONG_DD": -149.0887114, "FAA_ID": "PAQ", "GlobalID": "bcb67282-b442-4449-be62-ed93a4c3be43", "OBJECTID": 240 }, "geometry": { "type": "Point", "coordinates": [ -149.088734721688013, 61.594915347318398 ] } },
{ "type": "Feature", "properties": { "NAME": "Merrill Field", "OWNER": "Other Government", "ID": 249, "STATUS": "Other", "REGION": "Central", "LAT_DD": 61.213545, "LONG_DD": -149.8444464, "FAA_ID": "MRI", "GlobalID": "d381f71b-07aa-4175-93a4-e082f7324275", "OBJECTID": 241 }, "geometry": { "type": "Point", "coordinates": [ -149.844469444004005, 61.213546647660898 ] } },
{ "type": "Feature", "properties": { "NAME": "Tyonek Apt", "OWNER": "Other Government", "ID": 250, "STATUS": "Other", "REGION": "Central", "LAT_DD": 61.0741, "LONG_DD": -151.1336, "FAA_ID": "TYE", "GlobalID": "caf27e62-4a1e-4eee-9507-adac2272fc74", "OBJECTID": 242 }, "geometry": { "type": "Point", "coordinates": [ -151.133622924213, 61.074101446570999 ] } },
{ "type": "Feature", "properties": { "NAME": "Thompson Pass Apt", "OWNER": "Other Government", "ID": 252, "STATUS": "Other", "REGION": "Northern", "LAT_DD": 61.1772703, "LONG_DD": -145.6884339, "FAA_ID": "K55", "GlobalID": "6d28bb55-e16e-4f7b-8b8d-da1768c364d6", "OBJECTID": 244 }, "geometry": { "type": "Point", "coordinates": [ -145.688456898172007, 61.177272628592299 ] } },
{ "type": "Feature", "properties": { "NAME": "Kenai Municipal Apt", "OWNER": "Other Government", "ID": 253, "STATUS": "Other", "REGION": "Central", "LAT_DD": 60.5733068, "LONG_DD": -151.2447778, "FAA_ID": "ENA", "GlobalID": "e264f4a2-8b87-4565-9768-588c0eec93c3", "OBJECTID": 245 }, "geometry": { "type": "Point", "coordinates": [ -151.244800379249995, 60.5733082631847 ] } },
{ "type": "Feature", "properties": { "NAME": "Soldotna Municipal Apt", "OWNER": "Other Government", "ID": 254, "STATUS": "Other", "REGION": "Central", "LAT_DD": 60.4749583, "LONG_DD": -151.0382389, "FAA_ID": "SXQ", "GlobalID": "e09525e8-52ee-4722-82fd-deabc9dfe979", "OBJECTID": 246 }, "geometry": { "type": "Point", "coordinates": [ -151.038261420276001, 60.474959802279002 ] } },
{ "type": "Feature", "properties": { "NAME": "Seldovia SPB", "OWNER": "Other Government", "ID": 255, "STATUS": "Other Sea Plane Base", "REGION": "Central", "LAT_DD": 59.4358917, "LONG_DD": -151.71457329, "FAA_ID": "A27", "GlobalID": "9606242d-71c7-42a3-8c4c-89c78b86d8f0", "OBJECTID": 247 }, "geometry": { "type": "Point", "coordinates": [ -151.714595133191011, 59.435893160313398 ] } },
{ "type": "Feature", "properties": { "NAME": "Egegik Apt", "OWNER": "Other Government", "ID": 256, "STATUS": "Other", "REGION": "Southcoast", "LAT_DD": 58.1854903, "LONG_DD": -157.3754278, "FAA_ID": "EII", "GlobalID": "68c34a1e-f008-4865-829a-fff2f9df87f4", "OBJECTID": 248 }, "geometry": { "type": "Point", "coordinates": [ -157.375448669907001, 58.185490985871802 ] } },
{ "type": "Feature", "properties": { "NAME": "Kodiak Municipal Apt", "OWNER": "Other Government", "ID": 257, "STATUS": "Other", "REGION": "Southcoast", "LAT_DD": 57.8059175, "LONG_DD": -152.3738414, "FAA_ID": "KDK", "GlobalID": "b93cc69c-059d-4f46-9f8f-02344f1f49ba", "OBJECTID": 249 }, "geometry": { "type": "Point", "coordinates": [ -152.373862299635988, 57.805918974835201 ] } },
{ "type": "Feature", "properties": { "NAME": "Wainwright Apt", "OWNER": "Other Government", "ID": 259, "STATUS": "Other", "REGION": "Northern", "LAT_DD": 70.638, "LONG_DD": -159.99475, "FAA_ID": "AWI", "GlobalID": "823094e4-29a5-47ce-8682-ab328de06110", "OBJECTID": 251 }, "geometry": { "type": "Point", "coordinates": [ -159.994782590299991, 70.637999136887103 ] } },
{ "type": "Feature", "properties": { "NAME": "Point Lay Apt", "OWNER": "Other Government", "ID": 260, "STATUS": "Other", "REGION": "Northern", "LAT_DD": 69.732875, "LONG_DD": -163.0053417, "FAA_ID": "PIZ", "GlobalID": "3da666bd-07de-41ff-a2c9-38cb85bc0950", "OBJECTID": 252 }, "geometry": { "type": "Point", "coordinates": [ -163.005372438255989, 69.732873683241607 ] } },
{ "type": "Feature", "properties": { "NAME": "Atqasuk Apt", "OWNER": "Other Government", "ID": 261, "STATUS": "Other", "REGION": "Northern", "LAT_DD": 70.4672761, "LONG_DD": -157.4357361, "FAA_ID": "ATK", "GlobalID": "6189eb78-b9c8-4a8c-b83e-d77296d6bc8e", "OBJECTID": 253 }, "geometry": { "type": "Point", "coordinates": [ -157.435768719352012, 70.467275716225899 ] } },
{ "type": "Feature", "properties": { "NAME": "Anaktuvuk Pass Apt", "OWNER": "Other Government", "ID": 262, "STATUS": "Other", "REGION": "Northern", "LAT_DD": 68.1335972, "LONG_DD": -151.7433417, "FAA_ID": "AKP", "GlobalID": "ca388d23-c75d-432e-963e-3e03c08ed03b", "OBJECTID": 254 }, "geometry": { "type": "Point", "coordinates": [ -151.743371326429013, 68.133598037488497 ] } },
{ "type": "Feature", "properties": { "NAME": "Nuiqsut Apt", "OWNER": "Other Government", "ID": 263, "STATUS": "Other", "REGION": "Northern", "LAT_DD": 70.2099528, "LONG_DD": -151.0055611, "FAA_ID": "AQT", "GlobalID": "34d3a64a-127e-4e11-a00d-32f6b0023f94", "OBJECTID": 255 }, "geometry": { "type": "Point", "coordinates": [ -151.005593750114997, 70.209953617593399 ] } },
{ "type": "Feature", "properties": { "NAME": "Kaktovik / Barter Island LRRS Apt", "OWNER": "Other Government", "ID": 264, "STATUS": "Other", "REGION": "Northern", "LAT_DD": 70.1339886, "LONG_DD": -143.5818669, "FAA_ID": "BTI", "GlobalID": "aca4506f-9281-4dea-86e1-700353dd7b91", "OBJECTID": 256 }, "geometry": { "type": "Point", "coordinates": [ -143.581899382321012, 70.133990795124106 ] } },
{ "type": "Feature", "properties": { "NAME": "Arctic Village Apt", "OWNER": "Other Government", "ID": 265, "STATUS": "Other", "REGION": "Northern", "LAT_DD": 68.1146694, "LONG_DD": -145.5794153, "FAA_ID": "ARC", "GlobalID": "568983e4-bafb-4091-b127-2b7e3d7f3310", "OBJECTID": 257 }, "geometry": { "type": "Point", "coordinates": [ -145.579444946336992, 68.114671350777499 ] } },
{ "type": "Feature", "properties": { "NAME": "Venetie Apt", "OWNER": "Other Government", "ID": 266, "STATUS": "Other", "REGION": "Northern", "LAT_DD": 67.008675, "LONG_DD": -146.3663583, "FAA_ID": "VEE", "GlobalID": "a1067554-4e90-4060-a35d-cae4a5330da6", "OBJECTID": 258 }, "geometry": { "type": "Point", "coordinates": [ -146.366386600587987, 67.008676877094103 ] } },
{ "type": "Feature", "properties": { "NAME": "Nenana Municipal Apt", "OWNER": "Other Government", "ID": 267, "STATUS": "Other", "REGION": "Northern", "LAT_DD": 64.5473292, "LONG_DD": -149.0739752, "FAA_ID": "ENN", "GlobalID": "3ef08f7f-0016-4ee6-940f-1fe4170ddbda", "OBJECTID": 259 }, "geometry": { "type": "Point", "coordinates": [ -149.074000945006986, 64.547330758582405 ] } },
{ "type": "Feature", "properties": { "NAME": "Gold King Creek Apt", "OWNER": "DOT&PF Controlled", "ID": 268, "STATUS": "Other", "REGION": "Northern", "LAT_DD": 64.1980556, "LONG_DD": -147.9286111, "FAA_ID": "AK7", "GlobalID": "ef51c7ee-fa03-4ee8-878e-b4c875d1162c", "OBJECTID": 260 }, "geometry": { "type": "Point", "coordinates": [ -147.928636531085004, 64.198057378379801 ] } },
{ "type": "Feature", "properties": { "NAME": "Delta Junction Apt", "OWNER": "Other Government", "ID": 269, "STATUS": "Other", "REGION": "Northern", "LAT_DD": 64.0504375, "LONG_DD": -145.7173264, "FAA_ID": "D66", "GlobalID": "4522279d-0c41-4780-9eb5-1eb03dd7c866", "OBJECTID": 261 }, "geometry": { "type": "Point", "coordinates": [ -145.717351672456999, 64.050439665191703 ] } },
{ "type": "Feature", "properties": { "NAME": "Tetlin Apt", "OWNER": "DOT&PF Controlled", "ID": 270, "STATUS": "Standard", "REGION": "Northern", "LAT_DD": 63.1246944, "LONG_DD": -142.5185556, "FAA_ID": "3T4", "GlobalID": "03c77145-21fd-4d1d-a02b-946ed4d4b6b5", "OBJECTID": 262 }, "geometry": { "type": "Point", "coordinates": [ -142.518579966919987, 63.124697156198202 ] } },
{ "type": "Feature", "properties": { "NAME": "Tanacross Apt", "OWNER": "Other Government", "ID": 271, "STATUS": "Other", "REGION": "Northern", "LAT_DD": 63.3743672, "LONG_DD": -143.3355739, "FAA_ID": "TSG", "GlobalID": "9d3d0d77-7e4b-4dbc-b3c1-65ee024306b1", "OBJECTID": 263 }, "geometry": { "type": "Point", "coordinates": [ -143.335598510241994, 63.374369807361198 ] } },
{ "type": "Feature", "properties": { "NAME": "Murphys Pullout SPB", "OWNER": "Other Government", "ID": 272, "STATUS": "Other Sea Plane Base", "REGION": "Southcoast", "LAT_DD": 55.38965, "LONG_DD": -131.738074, "FAA_ID": "8K9", "GlobalID": "88f0fa5f-23e8-41db-aca4-24a689cf8f9c", "OBJECTID": 264 }, "geometry": { "type": "Point", "coordinates": [ -131.738092762859992, 55.389654629359804 ] } },
{ "type": "Feature", "properties": { "NAME": "Wrangell SPB", "OWNER": "Other Government", "ID": 273, "STATUS": "Other Sea Plane Base", "REGION": "Southcoast", "LAT_DD": 56.46624342, "LONG_DD": -132.38256482, "FAA_ID": "68A", "GlobalID": "d8fb8260-d865-44f6-b783-39fea9245b9b", "OBJECTID": 265 }, "geometry": { "type": "Point", "coordinates": [ -132.382584151038998, 56.466247952573603 ] } },
{ "type": "Feature", "properties": { "NAME": "Pelican SPB", "OWNER": "Other Government", "ID": 274, "STATUS": "Other Sea Plane Base", "REGION": "Southcoast", "LAT_DD": 57.955172, "LONG_DD": -136.236273, "FAA_ID": "PEC", "GlobalID": "db61fed4-b5c7-46f8-bbe6-ce8f0de42090", "OBJECTID": 266 }, "geometry": { "type": "Point", "coordinates": [ -136.236293477581, 57.955175941074998 ] } },
{ "type": "Feature", "properties": { "NAME": "Sitka SPB", "OWNER": "Other Government", "ID": 276, "STATUS": "Other Sea Plane Base", "REGION": "Southcoast", "LAT_DD": 57.052138, "LONG_DD": -135.346209, "FAA_ID": "A29", "GlobalID": "a93b1d97-0809-44ba-819c-b8733ed3e95f", "OBJECTID": 268 }, "geometry": { "type": "Point", "coordinates": [ -135.346228926809999, 57.052142090863597 ] } },
{ "type": "Feature", "properties": { "NAME": "Yakataga Airstrip", "OWNER": "Other Government", "ID": 277, "STATUS": "Other", "REGION": "Northern", "LAT_DD": 60.0820125, "LONG_DD": -142.4934853, "FAA_ID": "CYT", "GlobalID": "2595e83e-5378-4120-97e7-3210c9993f04", "OBJECTID": 269 }, "geometry": { "type": "Point", "coordinates": [ -142.493507454821014, 60.082015398180403 ] } },
{ "type": "Feature", "properties": { "NAME": "Situk Airstrip", "OWNER": "Other Government", "ID": 278, "STATUS": "Other", "REGION": "Southcoast", "LAT_DD": 59.5516442, "LONG_DD": -139.5091878, "FAA_ID": "A68", "GlobalID": "a658dd7c-08e2-4524-9f79-f48e52593833", "OBJECTID": 270 }, "geometry": { "type": "Point", "coordinates": [ -139.509209452492001, 59.551647591416398 ] } },
{ "type": "Feature", "properties": { "NAME": "Dangerous River Airstrip", "OWNER": "Other Government", "ID": 279, "STATUS": "Other", "REGION": "Southcoast", "LAT_DD": 59.4047167, "LONG_DD": -139.2329333, "FAA_ID": "A70", "GlobalID": "dde4daa2-a6a7-4ff3-90f9-2cc1facda7df", "OBJECTID": 271 }, "geometry": { "type": "Point", "coordinates": [ -139.232954842844009, 59.404720140261503 ] } },
{ "type": "Feature", "properties": { "NAME": "Harlequin Lake Airstrip", "OWNER": "Other Government", "ID": 280, "STATUS": "Other", "REGION": "Southcoast", "LAT_DD": 59.4144389, "LONG_DD": -139.0250494, "FAA_ID": "A67", "GlobalID": "a91f1b4e-dc8c-4a4e-87ba-31612f1f068a", "OBJECTID": 272 }, "geometry": { "type": "Point", "coordinates": [ -139.025070934472012, 59.414442371313498 ] } },
{ "type": "Feature", "properties": { "NAME": "Tanis Mesa Airstrip", "OWNER": "Other Government", "ID": 281, "STATUS": "Other", "REGION": "Southcoast", "LAT_DD": 59.2480419, "LONG_DD": -138.5036706, "FAA_ID": "A69", "GlobalID": "42f06680-5c69-4fd2-a51d-7751cb74c2d3", "OBJECTID": 273 }, "geometry": { "type": "Point", "coordinates": [ -138.50369199587999, 59.248045459360497 ] } },
{ "type": "Feature", "properties": { "NAME": "Alsek River Airstrip", "OWNER": "Other Government", "ID": 282, "STATUS": "Other", "REGION": "Southcoast", "LAT_DD": 59.1992167, "LONG_DD": -138.451, "FAA_ID": "A57", "GlobalID": "e84b00dd-32a1-47c3-8d62-9982f12687b6", "OBJECTID": 274 }, "geometry": { "type": "Point", "coordinates": [ -138.451021364859002, 59.199220269500103 ] } },
{ "type": "Feature", "properties": { "NAME": "East Alsek River Airstrip", "OWNER": "Other Government", "ID": 283, "STATUS": "Other", "REGION": "Southcoast", "LAT_DD": 59.1260944, "LONG_DD": -138.4067444, "FAA_ID": "AK76", "GlobalID": "b3b83bfb-6156-4001-b31f-570f18235936", "OBJECTID": 275 }, "geometry": { "type": "Point", "coordinates": [ -138.406765717843996, 59.126097978651899 ] } },